id,name,address,latitude,longitude,allowed_radius_meters,active,created_at,updated_at,google_place_id,barrio,localidad,formato
B4F3CF44-6B9C-46AF-BFC5-0046FEFA645F,752,Balcarce 379,-34.6121509,-58.3705399,150,1,2026-06-23 01:55:51.361,2026-06-23 01:55:51.361,,,,
705689B8-36EB-47F8-A499-010BF8F085E7,331,Charcas 3171,-34.6646472,-58.5248394,150,1,2026-06-23 01:55:51.361,2026-06-23 01:55:51.361,,,,
B8F202E1-E09B-4595-9298-01967647E6C6,858,Rio de Janeiro 838,-34.6055647,-58.4309940,150,1,2026-06-23 01:55:51.361,2026-06-23 01:55:51.361,,,,
85E752B2-3E15-4575-AA56-0235E827F5EB,697,Caboto 420,-34.6277505,-58.3604853,150,1,2026-06-23 01:55:51.361,2026-06-23 01:55:51.361,,,,
628FC06B-135B-4244-B7D9-029D97F4CF04,493,Charcas 3940,-34.6711825,-58.5175443,150,1,2026-06-23 01:55:51.361,2026-06-23 01:55:51.361,,,,
CF8D9143-0B40-46A4-A380-042876FCD6B1,325,Vidal 2355,-34.5618145,-58.4624001,150,1,2026-06-23 01:55:51.361,2026-06-23 01:55:51.361,,,,
8B522775-EB01-4A1B-BB93-04563631F78B,470,El Payador 5550,-34.5889824,-58.5733717,150,1,2026-06-23 01:55:51.361,2026-06-23 01:55:51.361,,,,
EF3C5AB3-5AA3-4144-9A2A-05FB49EF1028,624,Nazca 3214,-34.5990233,-58.4915763,150,1,2026-06-23 01:55:51.361,2026-06-23 01:55:51.361,,,,
A549360D-1DD7-41D2-BC7F-062A68279292,831,Av. Maipu 518,-34.5334742,-58.4785655,150,1,2026-06-23 01:55:51.361,2026-06-23 01:55:51.361,,,,
230FC809-9DC3-4403-A789-073C84230C92,643,Segurola 1441,-34.6735478,-58.5096130,150,1,2026-06-23 01:55:51.361,2026-06-23 01:55:51.361,,,,
AF0AE09E-39D7-46E8-821B-0795ECA3A10E,453,Martin Rodriguez 1399 (Banfield),-34.5159860,-58.5517326,150,1,2026-06-23 01:55:51.361,2026-06-23 01:55:51.361,,,,
56692B5E-B15E-4968-90CF-07FFE622A135,446,Eva Peron 4461,-34.7290823,-58.3527221,150,1,2026-06-23 01:55:51.361,2026-06-23 01:55:51.361,,,,
500EE771-D3D7-4274-871B-080EDC63C725,765,Buenos Aires 65,-36.3149870,-57.6777587,150,1,2026-06-23 01:55:51.361,2026-06-23 01:55:51.361,,,,
AE86C5CD-C196-49BB-965D-08332C6A20F5,652,Av. Las Heras 2986,-34.5834406,-58.4037638,150,1,2026-06-23 01:55:51.361,2026-06-23 01:55:51.361,,,,
EFB01A0D-4143-41E7-8067-087BB8E1B4C8,727,Montiel 168,-34.6411885,-58.5262913,150,1,2026-06-23 01:55:51.361,2026-06-23 01:55:51.361,,,,
97C73A09-ED3D-4F48-9D2C-08937927FDF8,557,Arzobispo Espinosa 1187,-34.6335000,-58.3701040,150,1,2026-06-23 17:53:14.760,2026-06-23 17:53:14.760,ChIJ0c5NmMo0o5URt8K8GvlCY6U,La Boca,Buenos Aires,Express
22EFF603-EC51-4ABA-91E5-08C9185297CC,6017,Viamonte 4620,-32.9929954,-68.8870530,150,1,2026-06-23 01:55:51.361,2026-06-23 19:19:44.411,ChIJPewDFZQKfpYRpmsyE-XxhiY,,Luján de Cuyo,
0B36FEA1-496E-48AD-B904-09230054A693,375,Esmeralda 428,-36.5940047,-64.2871669,150,1,2026-06-23 01:55:51.361,2026-06-23 01:55:51.361,,,,
4B3240D1-24A3-4015-BEBF-0B25BAF2E141,731,Sarmiento 4551,-34.6040780,-58.4296347,150,1,2026-06-23 01:55:51.361,2026-06-23 01:55:51.361,,,,
CC7C2F97-B6CF-4747-8F4B-0B2D4A913245,173,Caseros 243,-33.6852978,-59.6687388,150,1,2026-06-23 01:55:51.361,2026-06-23 01:55:51.361,,,,
8CFB4AC9-CEDB-41CF-90ED-0B57E86C39F3,679,Av. Scalabrini Ortiz 1396,-34.5922034,-58.4269014,150,1,2026-06-23 01:55:51.361,2026-06-23 01:55:51.361,,,,
F2128E16-D5A2-4BA0-B31B-0BE42DF18723,301,Pueyrredon 2464,-31.6657370,-60.7907608,150,1,2026-06-23 01:55:51.361,2026-06-23 01:55:51.361,,,,
065CD2EC-7B70-4257-9B66-0C1FD08A649E,792,Av. Independencia 3802,-34.6211943,-58.4194368,150,1,2026-06-23 01:55:51.361,2026-06-23 01:55:51.361,,,,
42F4054C-0D5A-4537-B630-0CD3F3F020E2,430,Carrillo 2170,-37.9621630,-57.6300656,150,1,2026-06-23 01:55:51.361,2026-06-23 01:55:51.361,,,,
0A8D229E-79FC-433D-A152-0CF3A9BC9DFD,778,Bulnes 758,-34.6027264,-58.4179514,150,1,2026-06-23 01:55:51.361,2026-06-23 01:55:51.361,,,,
74139421-5CA4-441A-A259-0E5B1A39CFE2,847,Av. Eden 499,-31.0933754,-64.4867117,150,1,2026-06-23 01:55:51.361,2026-06-23 01:55:51.361,,,,
D8C2262A-D9BA-45B8-9438-0E994DCCF654,854,Av. Bartolome Mitre 3125,-34.6822548,-58.3440293,150,1,2026-06-23 01:55:51.361,2026-06-23 01:55:51.361,,,,
D26847B1-0C4E-45B8-9B9B-0EDBDBBF0D4A,431,Av. Presidente Teniente Gral J.D.Peron 3283,-34.4533740,-58.5383173,150,1,2026-06-23 01:55:51.361,2026-06-23 01:55:51.361,,,,
558C9050-7C18-4A97-9726-0F2477EB6DC7,417,Fray Cayetano Rodriguez 464,-35.2352159,-63.5939305,150,1,2026-06-23 01:55:51.361,2026-06-23 01:55:51.361,,,,
6B08E416-BAF8-4839-8A29-0FB065625F3D,492,Pedro Lozano 3150,-34.6008957,-58.4944763,150,1,2026-06-23 01:55:51.361,2026-06-23 01:55:51.361,,,,
0DB28D13-55F2-435A-8F28-0FBFDB1F308E,332,Billinghurst 1380,-34.6993166,-58.6207844,150,1,2026-06-23 01:55:51.361,2026-06-23 01:55:51.361,,,,
15A4CC08-19BB-4022-B329-1076CCA97145,460,Eva Perón 3330,-34.5838321,-58.6613307,150,1,2026-06-23 01:55:51.361,2026-06-23 01:55:51.361,,,,
54775248-6716-445B-9CF2-108A990636F9,610,Pueyrredon 298,-37.0292286,-64.2804432,150,1,2026-06-23 01:55:51.361,2026-06-23 01:55:51.361,,,,
164DBE0D-D136-45ED-B000-10AB2CB79234,443,Los Tilos 711,-32.8608904,-68.8579004,150,1,2026-06-23 01:55:51.361,2026-06-23 01:55:51.361,,,,
5BA60F5B-DFDD-4947-94F4-110D5206A73A,874,"Claudio Cuenca, X5000 Córdoba, Argentina",-31.3877692,-64.2154618,150,1,2026-06-18 12:02:22.453,2026-06-18 12:02:22.453,EilDbGF1ZGlvIEN1ZW5jYSwgWDUwMDAgQ8OzcmRvYmEsIEFyZ2VudGluYSIuKiwKFAoSCQFwWHHomDKUER-tWveTF2QcEhQKEglpW49HX5gylBGSsGZTmk-isA,,,
1AABCF7A-CC0E-47DA-A667-111DE2C3406C,571,Tacuari 89,-34.7938783,-58.4253706,150,1,2026-06-23 01:55:51.361,2026-06-23 01:55:51.361,,,,
49ED8693-71D4-4EEC-9761-1121F3AC8C47,598,Sarmiento 1810,-29.4627038,-60.2161989,150,1,2026-06-23 01:55:51.361,2026-06-23 01:55:51.361,,,,
17218824-56AB-43CC-8877-11E5D0B0AAEE,740,Varela 888,-34.6394308,-58.4586640,150,1,2026-06-23 01:55:51.361,2026-06-23 01:55:51.361,,,,
8D203B0B-3CC7-4CB2-B4C1-1239E90B8CC1,875,Av. Bandera de Los Andes 9685,-32.9237007,-68.7381993,150,1,2026-06-23 01:55:51.361,2026-06-23 01:55:51.361,,,,
8B936345-1D5F-4EDC-A7BE-126E63026E8D,870,Godoy Cruz 2681,-34.5788564,-58.4254288,150,1,2026-06-23 01:55:51.361,2026-06-23 01:55:51.361,,,,
829A6A26-BEDD-428B-A0F4-12FD230A63B3,6014,Guardia Vieja 1235,-38.7338512,-62.2232189,150,1,2026-06-23 01:55:51.361,2026-06-23 01:55:51.361,,,,
F7322747-F2DE-43AF-8CC5-13083D5C5D00,369,Caseros 2864,-36.7642002,-56.6873791,150,1,2026-06-23 01:55:51.361,2026-06-23 01:55:51.361,,,,
E524F608-4A6C-4A9D-AF90-13B6A0FBAC55,580,Av. Corrientes 4147,-32.9846040,-60.6521724,150,1,2026-06-23 01:55:51.361,2026-06-23 01:55:51.361,,,,
656187CB-1580-4187-8F95-149557C6C55B,724,Ayacucho 539,-34.6028348,-58.3954658,150,1,2026-06-23 01:55:51.361,2026-06-23 01:55:51.361,,,,
52B084B9-8B0D-481B-B1D1-161CE8464C57,286,Av. Belgrano 1170,-34.6132033,-58.3827839,150,1,2026-06-23 01:55:51.361,2026-06-23 01:55:51.361,,,,
B1ADECD5-6ABB-46C9-9A59-172208ACC1E9,6037,Ejército de los Andes 2222,-34.4936587,-58.7054201,150,1,2026-06-23 01:55:51.361,2026-06-23 01:55:51.361,,,,
3AAE824B-3CD2-4E69-82E9-172375E769C8,764,San Lorenzo 484,-32.8957044,-68.8028133,150,1,2026-06-23 01:55:51.361,2026-06-23 01:55:51.361,,,,
761D6110-3772-4A51-AD97-17BC99B3F3B6,477,"Dr. Enrique Simón Pérez 4566, B1629 González Catán, Provincia de Buenos Aires",-34.7728112,-58.6449343,150,1,2026-06-23 01:55:51.361,2026-06-23 01:55:51.361,,,,
A894338B-3218-4840-A89F-18FC2BE12DF7,207,Av. San Juan 560,-34.6219219,-58.3736200,150,1,2026-06-23 01:55:51.361,2026-06-23 01:55:51.361,,,,
F671B7C5-0764-4FE6-8855-1AD235C43DDB,723,"Av. Leandro N. Alem 198, C1003 Cdad. Autónoma de Buenos Aires",-34.4987309,-61.5414010,150,1,2026-06-23 01:55:51.361,2026-06-23 01:55:51.361,,,,
BC8FCB46-7E43-4DC9-A1E7-1B2F1F56C905,811,Av. Alvarez Thomas 1002,-34.5789127,-58.4559845,150,1,2026-06-23 01:55:51.361,2026-06-23 01:55:51.361,,,,
6281A262-CE41-4896-BEFE-1C09B60CE84A,734,Urquiza 1013,-34.6225425,-58.4090968,150,1,2026-06-23 01:55:51.361,2026-06-23 01:55:51.361,,,,
42164136-0899-48D6-AC62-1C4CB713CE19,807,Av. Capdevila 264,-31.3804308,-64.1710487,150,1,2026-06-23 01:55:51.361,2026-06-23 01:55:51.361,,,,
74EE3879-7C3F-4F32-82A9-1CE7A5E93961,842,Juan Agustín Maza 2777,-34.5168795,-58.7074515,150,1,2026-06-23 01:55:51.361,2026-06-23 01:55:51.361,,,,
81CCD5EA-1D36-4599-A822-1CFFBCA1A2E3,6008,Alvarado 620,-34.7215025,-58.7153111,150,1,2026-06-23 01:55:51.361,2026-06-23 01:55:51.361,,,,
99CA3394-2C7C-462D-800A-1DC3507D3E8C,172,San Juan 1128,-32.8059792,-61.4125854,150,1,2026-06-23 01:55:51.361,2026-06-23 01:55:51.361,,,,
DD82BD9B-188A-4BBE-8729-1E5DB6C4E1EE,777,Bucarelli 1980,-34.5797066,-58.4846937,150,1,2026-06-23 01:55:51.361,2026-06-23 01:55:51.361,,,,
F0BE2F77-5072-4584-B1AB-1EDC369EA570,673,Carrasco 421,-34.6323331,-58.4912882,150,1,2026-06-23 01:55:51.361,2026-06-23 01:55:51.361,,,,
9352EEEC-443F-434F-B125-1F3259672962,337,Av. Federico Lacroze 2566,-34.5721535,-58.4461631,150,1,2026-06-23 01:55:51.361,2026-06-23 01:55:51.361,,,,
5BA8C774-E48D-4649-8DF9-1F70CC5EDC3C,631,Lavalle 368,-34.6019353,-58.3719880,150,1,2026-06-23 17:54:40.554,2026-06-23 17:54:40.554,ChIJHVoW1MzKvJURUtJJCKK339Y,San Nicolás,Buenos Aires,Express
6D8E173A-E050-43B1-A1B9-1FB8BB54A9B8,640,Boulogne Sur Mer 431,-34.6051078,-58.4068552,150,1,2026-06-23 01:55:51.361,2026-06-23 01:55:51.361,,,,
AD1D6DDD-B967-4366-83F4-1FC53CB11588,689,Av. Independencia 2716,-34.6188884,-58.4037460,150,1,2026-06-23 01:55:51.361,2026-06-23 01:55:51.361,,,,
8EBF57AE-C801-4A8A-A708-1FD4524B2F28,821,Santa Fe 49,-34.8674359,-58.3599502,150,1,2026-06-23 01:55:51.361,2026-06-23 01:55:51.361,,,,
E10AABA8-5B5C-4C7D-90FB-21D34F7A9E87,561,Angel Gallardo 940,-34.4057278,-58.7193274,150,1,2026-06-23 01:55:51.361,2026-06-23 01:55:51.361,,,,
D59BA8B8-13AA-4467-8191-230487A19D86,834,San Lorenzo 698,-32.8921347,-68.8491434,150,1,2026-06-23 01:55:51.361,2026-06-23 01:55:51.361,,,,
D05F4FC9-EE05-4B0E-97E2-2387A9934DE6,483,Carlos Casares 642,-34.7670637,-58.3836486,150,1,2026-06-23 01:55:51.361,2026-06-23 01:55:51.361,,,,
B7C07819-5C9B-4C67-809E-240F0D30B96D,799,Soler 5748,-34.5796929,-58.4340819,150,1,2026-06-23 01:55:51.361,2026-06-23 01:55:51.361,,,,
EDE78D73-60F3-4D18-BCA2-2454689C3569,454,Mitre 573,-36.7680340,-59.0943526,150,1,2026-06-23 01:55:51.361,2026-06-23 01:55:51.361,,,,
60133BDF-D8DA-48EB-BA6B-24BDB5AFC1BC,581,Juan Maria Gutierrez 3756,-34.5809887,-58.4130444,150,1,2026-06-23 01:55:51.361,2026-06-23 01:55:51.361,,,,
2F4B2CD7-4B40-41D0-BAD9-24C31FCB9215,776,Illia 490,-34.6288760,-58.5695653,150,1,2026-06-23 01:55:51.361,2026-06-23 01:55:51.361,,,,
FE0C71E1-1418-485D-8718-24C97D67D9B6,475,Av. de Mayo 1832,-33.8887418,-60.5851854,150,1,2026-06-23 01:55:51.361,2026-06-23 01:55:51.361,,,,
A7003EA0-6E1C-40F6-A74D-25B68758961C,568,Olazabal 1898,-34.4988645,-58.5837297,150,1,2026-06-23 01:55:51.361,2026-06-23 01:55:51.361,,,,
EED16A25-745B-414A-B328-26C4AB99F00F,328,Godoy Cruz 2793,-32.8922621,-68.8011096,150,1,2026-06-23 01:55:51.361,2026-06-23 01:55:51.361,,,,
90235E39-0F5B-4EBA-99CB-278716CE78B5,194,Jacinto de Altolaguirre 1679,-31.3886470,-64.1341066,150,1,2026-06-23 01:55:51.361,2026-06-23 01:55:51.361,,,,
E601E4D0-87D7-48A5-B86E-2835F66290BE,441,Velez Sarfield 4690,-33.0477445,-61.2016304,150,1,2026-06-23 01:55:51.361,2026-06-23 01:55:51.361,,,,
BAF3DE38-26F0-4893-9A76-28F5DD1F64CD,688,Lope de Vega 19,-34.6372656,-58.4994924,150,1,2026-06-23 01:55:51.361,2026-06-23 01:55:51.361,,,,
4CF32125-525C-4204-A51D-29226069632B,269,Tiburcio Benegas 2306,-32.8750819,-68.8475807,150,1,2026-06-23 01:55:51.361,2026-06-23 01:55:51.361,,,,
A075A503-1315-4E6C-8BA3-29FCB7C4C6DB,566,Alvarez Thomas 1996,-33.0787781,-60.5583721,150,1,2026-06-23 01:55:51.361,2026-06-23 01:55:51.361,,,,
7BF78F85-2596-4692-8929-2B492C4A776C,427,Av. Rivadavia 16051,-34.6450149,-58.5904148,150,1,2026-06-23 01:55:51.361,2026-06-23 01:55:51.361,,,,
722510AA-5E74-4D1F-97E5-2BB88E490CD5,474,Echeverri 943,-34.6714191,-58.6891318,150,1,2026-06-23 01:55:51.361,2026-06-23 01:55:51.361,,,,
49EA2A63-F7CC-4AE3-B0F8-2C30136400E3,455,Av. Hipolito Yrigoyen 2323,-34.4721301,-58.6563119,150,1,2026-06-23 01:55:51.361,2026-06-23 01:55:51.361,,,,
94AEB68B-8A11-4C99-8762-2D2C86FA344B,524,Bernardo Irigoyen 746,-38.3666794,-60.2744582,150,1,2026-06-23 01:55:51.361,2026-06-23 01:55:51.361,,,,
2A4C5BFC-9C0A-4EAB-8EF3-2E5A4EC996E3,prueba-casa,"Formosa 456, C1424BZJ Cdad. Autónoma de Buenos Aires, Argentina",-34.6213536,-58.4346741,150,1,2026-06-17 16:35:13.288,2026-06-17 16:35:13.288,ChIJHzQbdUbKvJUR5BGucfgHqdc,,,
73EC8BDF-C55A-4374-8BE6-2E6F4B9FF250,843,Montevideo 244,-32.8921662,-68.8430684,150,1,2026-06-23 01:55:51.361,2026-06-23 01:55:51.361,,,,
3294513E-D5EF-4208-A58F-2EDC45AC515A,745,Serrano 1458,-34.5896712,-58.4316396,150,1,2026-06-23 01:55:51.361,2026-06-23 01:55:51.361,,,,
A4E1C264-AC66-4689-8688-2F07DFB92B23,846,Santiago Temple 212,-31.4314595,-64.1937571,150,1,2026-06-23 01:55:51.361,2026-06-23 01:55:51.361,,,,
EFE2E92D-8180-4B9F-BA92-2F0E46D8C635,824,Av. San Martin 940,-29.1836649,-58.0758469,150,1,2026-06-23 01:55:51.361,2026-06-23 01:55:51.361,,,,
16ECA65C-087D-4236-B315-2F3B0A096699,539,Av. Teniente Gral Donato Alvarez 837,-34.6163182,-58.4583090,150,1,2026-06-23 01:55:51.361,2026-06-23 01:55:51.361,,,,
DC9EADF5-0E55-40AE-801D-2FA0175F4108,468,"Av. Brig. Gral. Juan Manuel de Rosas 6956, B1765 Isidro Casanova, Provincia de Buenos Aires",-34.7044322,-58.5827746,150,1,2026-06-23 01:55:51.361,2026-06-23 01:55:51.361,,,,
B4DE2093-6B26-4397-B625-2FDAB852CC4E,carrefour-formosa,"Formosa 565, C1419 Cdad. Autónoma de Buenos Aires, Argentina",-34.6212190,-58.4362687,150,1,2026-06-17 15:49:30.022,2026-06-17 15:49:34.393,ChIJN4mCREbKvJURIPuOZ6yUBxM,,,
49300D0D-F742-426B-AE19-2FE55FA75031,396,Av. San Martin 2289,-34.6041034,-58.4599889,150,1,2026-06-23 01:55:51.361,2026-06-23 01:55:51.361,,,,
335735ED-B55F-47F2-A813-311A2F3F393D,816,Av. Constituyentes 6209,-34.5706531,-58.5079769,150,1,2026-06-23 01:55:51.361,2026-06-23 01:55:51.361,,,,
535E5E2C-BB37-46EF-A8DD-311F2CBE2141,641,Alvear 126,-28.2422156,-59.4471838,150,1,2026-06-23 01:55:51.361,2026-06-23 01:55:51.361,,,,
ED8E58F5-EBB3-4C1B-A1A4-318C1B6426E2,796,Av. Chiclana 3002,-34.6302929,-58.4064103,150,1,2026-06-23 01:55:51.361,2026-06-23 01:55:51.361,,,,
AC3978F4-DD79-4147-A454-31C608F1BAB6,699,Dorrego 2145,-34.5780979,-58.4394105,150,1,2026-06-23 01:55:51.361,2026-06-23 01:55:51.361,,,,
9AE00DA3-C790-4860-AFC6-3214B9483DE2,6004,Boulevard San Juan 490,-31.4191103,-64.1926872,150,1,2026-06-23 01:55:51.361,2026-06-23 01:55:51.361,,,,
EE19979A-166D-446E-8877-333C54692324,826,Av. Francisco Beiro 5418,-34.6150408,-58.5264645,150,1,2026-06-23 01:55:51.361,2026-06-23 01:55:51.361,,,,
E44F100E-ED6E-4574-9C23-33B609E94FA6,729,Av. Belgrano 2160,-34.6141776,-58.3969418,150,1,2026-06-23 01:55:51.361,2026-06-23 01:55:51.361,,,,
F5664038-A041-4A94-AA51-34DBD292EE1D,812,Av. Cobo 1697,-34.6431166,-58.4392017,150,1,2026-06-23 01:55:51.361,2026-06-23 01:55:51.361,,,,
77B4CEC3-8271-4D7A-820C-3534FF1F2FD3,357,Sarmiento 1592,-42.7758257,-65.0529866,150,1,2026-06-23 01:55:51.361,2026-06-23 01:55:51.361,,,,
A38CFC16-B088-445F-94B9-3586B54F8798,352,Rodriguez Peña 1183,-29.7842259,-58.0592382,150,1,2026-06-23 01:55:51.361,2026-06-23 01:55:51.361,,,,
FA9C5783-C429-4EB4-8D46-3588671D8720,472,Jauretche 1125,-42.7505174,-65.0467517,150,1,2026-06-23 01:55:51.361,2026-06-23 01:55:51.361,,,,
1DA245CE-C23B-4F6B-8BD4-3696C015FECE,576,Nuñez 1563,-34.5457099,-58.4595394,150,1,2026-06-23 01:55:51.361,2026-06-23 01:55:51.361,,,,
938A7442-EC9B-458C-A4F9-36B0A408329D,416,Av. Almafuerte 880,-34.6481605,-58.4161184,150,1,2026-06-23 01:55:51.361,2026-06-23 01:55:51.361,,,,
CC94ECF0-BC53-47DB-A39B-380CDEC898F9,6005,Rivadeo 1487,-31.3998887,-64.1808871,150,1,2026-06-23 01:55:51.361,2026-06-23 01:55:51.361,,,,
F46DB190-33D2-4C94-A6C7-38133D82E2E1,349,Av. Cabildo 34,-34.5746511,-58.4359430,150,1,2026-06-23 01:55:51.361,2026-06-23 01:55:51.361,,,,
C9C1DD1B-0E57-45E2-90DF-387A83947133,664,Nogoya 3644,-34.6064201,-58.4978784,150,1,2026-06-23 01:55:51.361,2026-06-23 01:55:51.361,,,,
326357BB-21EB-49C6-9ECC-38D2A9C72034,409,Av. Gaona 3567,-34.6209545,-58.4750657,150,1,2026-06-23 01:55:51.361,2026-06-23 01:55:51.361,,,,
CB994761-B84E-4DBB-AA3E-38EED8147489,448,Carlos Pellegrini 844,-31.4176999,-64.1561410,150,1,2026-06-23 01:55:51.361,2026-06-23 01:55:51.361,,,,
9558CE4B-C516-4DCE-BB32-38F0A3E90895,822,Av. España 1244,-32.8885469,-68.8415535,150,1,2026-06-23 01:55:51.361,2026-06-23 01:55:51.361,,,,
88B61C91-8C06-4878-BF9D-39361780EA9D,761,Av. Corrientes 919,-34.6035943,-58.3797476,150,1,2026-06-23 01:55:51.361,2026-06-23 01:55:51.361,,,,
056FD754-0ABE-4E1E-A543-393C1E210111,785,Boulevard San Juan 217,-31.4199491,-64.1890536,150,1,2026-06-23 01:55:51.361,2026-06-23 01:55:51.361,,,,
E66717EE-F5A1-4C7F-9737-39A92188651F,781,Gabriela Mistral 3153,-34.5891595,-58.5047774,150,1,2026-06-23 01:55:51.361,2026-06-23 01:55:51.361,,,,
E2D7E320-C38C-4B6A-8344-3B9CEE39B3B8,403,Av. Santa Fe 5052,-34.5767999,-58.4308917,150,1,2026-06-23 01:55:51.361,2026-06-23 01:55:51.361,,,,
203DB755-4B0F-4E94-9D08-3C19DB9CC5E6,225,Jose Roque Funes 1145,-31.3799165,-64.2444588,150,1,2026-06-23 01:55:51.361,2026-06-23 01:55:51.361,,,,
9046BDDD-6A68-4DF4-8713-3CD043322EB5,758,Av. Corrientes 3401,-34.6041376,-58.4131836,150,1,2026-06-23 01:55:51.361,2026-06-23 01:55:51.361,,,,
AC2F251E-4507-4853-8007-3D61B63ADE0B,538,Hipolito Irigoyen 3254,-32.7291892,-60.7353748,150,1,2026-06-23 01:55:51.361,2026-06-23 01:55:51.361,,,,
410E3B36-E0A4-4081-9A60-3DEFF4C17229,521,Av. Urquiza 4855,-35.4571993,-60.8851401,150,1,2026-06-23 01:55:51.361,2026-06-23 01:55:51.361,,,,
074BBD19-0BEA-4569-B638-3E573D3BBEC3,498,Av. Luro 6329,-37.9794068,-57.5841323,150,1,2026-06-23 01:55:51.361,2026-06-23 01:55:51.361,,,,
D4C6A7E4-CB59-49B4-9073-3ECD1E7249E5,736,Chile 154,-34.6323765,-58.7834800,150,1,2026-06-23 01:55:51.361,2026-06-23 01:55:51.361,,,,
87D71722-A242-4747-AFC9-3EF8EAA276E6,836,Pueyrredon 283,-37.0292274,-64.2806461,150,1,2026-06-23 01:55:51.361,2026-06-23 01:55:51.361,,,,
D7974CF7-DB1D-41C4-A429-3F0966E86FB2,619,Ramos Mejia 1019,-31.4220852,-64.1232700,150,1,2026-06-23 01:55:51.361,2026-06-23 01:55:51.361,,,,
9A8ED0E5-4952-44C1-A9E2-3F2BAD3D4650,726,"Lisandro de la Torre 199, C1440 Cdad. Autónoma de Buenos Aires",-28.0557627,-56.0240491,150,1,2026-06-23 01:55:51.361,2026-06-23 01:55:51.361,,,,
773FE67D-7D58-4312-973F-3FAE48ECC0D6,311,Av. Monroe 2771,-34.5603055,-58.4633147,150,1,2026-06-23 01:55:51.361,2026-06-23 01:55:51.361,,,,
C598692E-B8F1-40EE-BCAC-3FF7EA5266C9,767,24 de Septiembre 1594,-29.1953394,-58.0736917,150,1,2026-06-23 01:55:51.361,2026-06-23 01:55:51.361,,,,
C90DD93A-1544-4D17-A2CB-405DE0033FD4,213,Paraguay 919,-23.1224040,-64.3163618,150,1,2026-06-23 01:55:51.361,2026-06-23 01:55:51.361,,,,
EC911B50-713F-41EF-B778-4074942498F8,789,Duarte Quirós 1851,-31.4115551,-64.2096943,150,1,2026-06-23 01:55:51.361,2026-06-23 01:55:51.361,,,,
B3B833B4-302C-42E8-B905-41082CB16455,560,Bartolome Mitre 1749,-34.5721212,-59.0982039,150,1,2026-06-23 01:55:51.361,2026-06-23 01:55:51.361,,,,
243AAD31-992A-4A8B-BF32-4230009064E5,425,Av. Brig. Gral. Juan Manuel de Rosas 2553,-34.5308681,-58.5754628,150,1,2026-06-23 01:55:51.361,2026-06-23 01:55:51.361,,,,
761051DB-C0FB-4BB6-9694-42AED19CDFA0,638,Av. De Mayo 432,-33.8935120,-60.5709460,150,1,2026-06-23 01:55:51.361,2026-06-23 01:55:51.361,,,,
03AA1B70-52AB-4773-8AE7-42B493215706,469,Fraga 1629,-34.6733179,-58.7657714,150,1,2026-06-23 01:55:51.361,2026-06-23 01:55:51.361,,,,
86B90618-E1B7-4309-BEA2-43199DB8B6C6,558,Sarmiento 345,-36.8580691,-63.6876884,150,1,2026-06-23 01:55:51.361,2026-06-23 01:55:51.361,,,,
216222D7-9FF6-4AA3-B0FB-43752E580D64,317,Doctor Tomas Manuel de Anchorena 1253,-34.5946506,-58.4063490,150,1,2026-06-23 01:55:51.361,2026-06-23 01:55:51.361,,,,
FC1E84BD-6561-42CB-9AAA-43BDE279A057,669,Yapeyu 2059,-34.7395400,-58.3482788,150,1,2026-06-23 01:55:51.361,2026-06-23 01:55:51.361,,,,
DE5ED83A-9E93-4EEB-9C8E-46BBAFF5B6E8,554,Coronel Martiniano Chilavert 6280,-34.6849302,-58.4747097,150,1,2026-06-23 01:55:51.361,2026-06-23 01:55:51.361,,,,
5DCFB8A5-CC49-4AC9-8B68-4758E3999902,300,Deheza 2239,-34.5406199,-58.4719907,150,1,2026-06-23 01:55:51.361,2026-06-23 01:55:51.361,,,,
DA244063-853C-4067-9FA0-47BB10DE6B9B,486,Av. San Juan 1374,-34.6223711,-58.3854630,150,1,2026-06-23 01:55:51.361,2026-06-23 01:55:51.361,,,,
73C66103-D537-455E-9994-47EBF8A3FCFC,654,Hipolito Yrigoyen 1790,-31.9787247,-60.9262350,150,1,2026-06-23 01:55:51.361,2026-06-23 01:55:51.361,,,,
C4C72B2E-420F-45D7-A083-48961B7090EE,615,Av. Rivadavia 4702,-34.6161663,-58.4316466,150,1,2026-06-23 01:55:51.361,2026-06-23 01:55:51.361,,,,
A4D4EC24-ED5E-4028-874D-49BCFEFAB69A,604,Av. Estado de Israel 4684,-34.6005974,-58.4309045,150,1,2026-06-23 01:55:51.361,2026-06-23 01:55:51.361,,,,
E662FC2F-1A4E-480E-A239-49BF1498CEB4,648,Belgrano 54,-34.2933788,-60.2604090,150,1,2026-06-23 01:55:51.361,2026-06-23 01:55:51.361,,,,
1BF3CD07-A38B-4978-9395-49FC196E80FA,437,Centenario 1890,-34.4613929,-58.5268277,150,1,2026-06-23 01:55:51.361,2026-06-23 01:55:51.361,,,,
5BC98A90-CA61-4618-8C45-4A82BE8CA8B4,480,Av. Crovara 875,-34.6787838,-58.5093863,150,1,2026-06-23 01:55:51.361,2026-06-23 01:55:51.361,,,,
C4DBB6D7-FF68-4903-9191-4BB050337D5C,363,Independencia 1833,-34.6617952,-58.7201481,150,1,2026-06-23 01:55:51.361,2026-06-23 01:55:51.361,,,,
879204DA-D685-4475-B86C-4BFC0C38AD0A,420,Av. Gaona 1384,-34.6087584,-58.4487296,150,1,2026-06-23 01:55:51.361,2026-06-23 01:55:51.361,,,,
0DC6A133-822B-4F51-939E-4CACBDD4549C,392,"Jorge Luis Borges 2463, C1425 Cdad. Autónoma de Buenos Aires",-34.5822134,-58.4211860,150,1,2026-06-23 01:55:51.361,2026-06-23 01:55:51.361,,,,
443107D7-A3C6-424F-B7DE-4CBDF5886CDE,236,Av. Rivadavia 7070,-34.6295368,-58.4651023,150,1,2026-06-23 01:55:51.361,2026-06-23 01:55:51.361,,,,
DDF479FC-4958-4B63-87D0-4CDA18E43D5A,320,Mariscal Antonio Jose Sucre 2490,-34.5642201,-58.4558088,150,1,2026-06-23 01:55:51.361,2026-06-23 01:55:51.361,,,,
B34CCEC4-1A02-4741-A13D-4D26F49890EF,592,Echeverria 1420,-33.8882960,-60.5804524,150,1,2026-06-23 01:55:51.361,2026-06-23 01:55:51.361,,,,
255DFEBB-C727-439A-8BB1-4DA4C26D7725,766,27 de abril 458,-27.5780569,-64.1360352,150,1,2026-06-23 01:55:51.361,2026-06-23 01:55:51.361,,,,
4529DD58-61E8-4058-9E12-4DF0D5852609,433,Av. Ing. Eduardo Madero 1050 - Ruta 26,-34.4492933,-58.7970667,150,1,2026-06-23 01:55:51.361,2026-06-23 01:55:51.361,,,,
D57540E8-4F95-47A4-B5B3-4E03976CB300,429,Independencia 4731,-27.4825754,-58.7949057,150,1,2026-06-23 01:55:51.361,2026-06-23 01:55:51.361,,,,
69F5054C-963B-4B48-BCE6-4EA3DF611EA4,871,Julio A. Roca 177,-35.0868027,-64.6136063,150,1,2026-06-23 01:55:51.361,2026-06-23 01:55:51.361,,,,
F2792275-F1B8-467D-995E-4F042DA53902,674,Virrey del Pino 2527,-34.5671445,-58.4541175,150,1,2026-06-23 01:55:51.361,2026-06-23 01:55:51.361,,,,
92DAA134-1CA4-4B4C-BF69-50158022CDA7,830,Gral José de San Martin 2601,-34.5273317,-58.4906464,150,1,2026-06-23 01:55:51.361,2026-06-23 01:55:51.361,,,,
51D50737-B960-4A76-A68D-5017BC2AA3BA,462,12 de octubre 520,-38.0885417,-63.4276472,150,1,2026-06-23 01:55:51.361,2026-06-23 01:55:51.361,,,,
152FA25C-6B4B-4144-B385-5035CBB9F1E2,579,Av. Alte. Brown 795,-34.6319984,-58.3608852,150,1,2026-06-23 01:55:51.361,2026-06-23 01:55:51.361,,,,
47161B7E-015B-4ED9-BCC9-50FCAE061B7B,608,Serrano 280,-33.7995057,-59.5000587,150,1,2026-06-23 01:55:51.361,2026-06-23 01:55:51.361,,,,
0786638D-4697-4A5F-8A5C-511AF8538632,265,Av. Angel Gallardo 30,-34.6023780,-58.4327354,150,1,2026-06-23 01:55:51.361,2026-06-23 01:55:51.361,,,,
E3A84FF7-6968-402C-A888-51B51CDC9ADD,347,Pacheco de Melo 2648,-34.5867690,-58.4014087,150,1,2026-06-23 01:55:51.361,2026-06-23 01:55:51.361,,,,
6B5ABE5D-F90D-49A4-830D-51B9F29B3427,273,Av. Cabildo 3722,-34.5487952,-58.4683049,150,1,2026-06-23 01:55:51.361,2026-06-23 01:55:51.361,,,,
727A83C0-1AD4-4A13-BD2A-51EA77F4D68E,644,25 de Mayo 979,-40.8102099,-63.0004731,150,1,2026-06-23 01:55:51.361,2026-06-23 01:55:51.361,,,,
BDA40AB9-92C7-482E-870C-51F458B83452,481,Boulogne Sur Mer 1398,-34.6420443,-58.6676135,150,1,2026-06-23 01:55:51.361,2026-06-23 01:55:51.361,,,,
815F0B6F-0445-492A-9F79-525C2EF8EABE,380,Otamendi 490,-34.6109937,-58.4336778,150,1,2026-06-23 01:55:51.361,2026-06-23 01:55:51.361,,,,
EA6CD26C-95B7-4E8B-B34D-5286D51BE744,866,Av. Montes de Oca 1714,-34.6468345,-58.3730592,150,1,2026-06-23 01:55:51.361,2026-06-23 01:55:51.361,,,,
F61F8DE4-22D7-4EE5-A6AB-529ECCEFA24C,464,Av. Peron 5492,-27.4610625,-58.7823942,150,1,2026-06-23 01:55:51.361,2026-06-23 01:55:51.361,,,,
29ED9ECA-43E9-49E9-998B-537C7F311231,522,Arieta 2850,-34.6762849,-58.5635615,150,1,2026-06-23 01:55:51.361,2026-06-23 01:55:51.361,,,,
8509CB31-4114-42F1-BF06-540018A381ED,860,Lopez y Planes 265,-31.4408427,-62.0714219,150,1,2026-06-23 01:55:51.361,2026-06-23 01:55:51.361,,,,
E0D9AC75-3BF9-4E00-9A73-546341C23AE9,6007,Av. Juan Bautista Alberdi 3099,-34.6341200,-58.4711961,150,1,2026-06-23 01:55:51.361,2026-06-23 01:55:51.361,,,,
9570C2DE-C3AF-4DC7-844A-5512E1C5731C,553,Cuzco 135,-34.6889196,-58.5167396,150,1,2026-06-23 01:55:51.361,2026-06-23 01:55:51.361,,,,
CC651813-2642-42B0-9E60-55381259E0F0,762,Sarachaga 780,-31.3910054,-64.1849825,150,1,2026-06-23 01:55:51.361,2026-06-23 01:55:51.361,,,,
023F33E9-524F-4B04-8A0F-5552BE8277A0,865,Av. San Martín 623,-29.1843997,-58.0717965,150,1,2026-06-23 01:55:51.361,2026-06-23 01:55:51.361,,,,
189504E4-5960-41BB-964B-55D8C36BFC91,621,Av. Avellaneda 1034,-34.7200920,-58.2960057,150,1,2026-06-23 01:55:51.361,2026-06-23 01:55:51.361,,,,
A28F11AC-B0FC-4FBF-A143-56CA9B272CA9,873,Santiago Derqui 33,-22.7247593,-65.6884590,150,1,2026-06-23 01:55:51.361,2026-06-23 01:55:51.361,,,,
E023A744-9F9D-4041-80F0-571DB4DE4BD6,845,Diaz Colodrero 3187,-34.5672168,-58.4907165,150,1,2026-06-23 01:55:51.361,2026-06-23 01:55:51.361,,,,
E83465BF-992B-4FBA-A6B9-5796243A2598,411,Av. E. Peron 3479,-34.6875787,-58.6365257,150,1,2026-06-23 01:55:51.361,2026-06-23 01:55:51.361,,,,
234DAE52-4085-4429-87E7-58087FC9DEEF,529,Viamonte 2296,-34.6011149,-58.3997712,150,1,2026-06-23 01:55:51.361,2026-06-23 01:55:51.361,,,,
F7AF5572-04E6-4312-9235-5872F4EB59C1,344,Marcelo Torcuato de Alvear 2251,-34.5966776,-58.3995605,150,1,2026-06-23 01:55:51.361,2026-06-23 01:55:51.361,,,,
7828D5A8-0E14-4222-8F8C-594EB3F8D934,535,Murguiondo 4324,-34.6779916,-58.4743521,150,1,2026-06-23 01:55:51.361,2026-06-23 01:55:51.361,,,,
38D0C559-4FE1-4A7F-9A7D-5985A7DFD059,542,Segurola 279,-34.6363805,-58.5621400,150,1,2026-06-23 01:55:51.361,2026-06-23 01:55:51.361,,,,
CE2D3D5D-87FC-4C18-82F3-59CDC5C78CD1,819,Av. Cabildo 3955,-34.5470277,-58.4696976,150,1,2026-06-23 01:55:51.361,2026-06-23 01:55:51.361,,,,
324392ED-B77E-41CE-8DAD-5A202D0663A2,582,Av. Congreso 4781,-34.5677691,-58.4864373,150,1,2026-06-23 01:55:51.361,2026-06-23 01:55:51.361,,,,
590839E5-97AB-4F21-BC8A-5A511C8DE0AA,174,Av. Independencia 2054,-35.9117438,-64.2839075,150,1,2026-06-23 01:55:51.361,2026-06-23 01:55:51.361,,,,
FE4C7834-D986-42E6-97B3-5AA84D484EE2,768,Independencia 855,-34.6639434,-58.7063149,150,1,2026-06-23 01:55:51.361,2026-06-23 01:55:51.361,,,,
5F715BE5-2187-4F92-937A-5BCFA1DC443B,774,Av. Saenz 1050,-34.6526070,-58.4163772,150,1,2026-06-23 01:55:51.361,2026-06-23 01:55:51.361,,,,
25036EE4-3869-4BB6-BAC8-5BE32303900C,572,Del Barco Centenera 1282,-34.6343409,-58.4358935,150,1,2026-06-23 01:55:51.361,2026-06-23 01:55:51.361,,,,
FC2BB370-DBDE-4478-9AB3-5C37E500DFED,857,Perito Moreno 341,-32.9287791,-68.8447597,150,1,2026-06-23 01:55:51.361,2026-06-23 01:55:51.361,,,,
296712C6-2A85-4A2E-B29D-5C84AD54C798,650,San Martin 26,-36.3162559,-57.6792311,150,1,2026-06-23 01:55:51.361,2026-06-23 01:55:51.361,,,,
9C34706C-6C43-4B94-9EE3-5CE36E29A3D7,827,Av. Juan B Justo 3695,-34.6027636,-58.4559385,150,1,2026-06-23 01:55:51.361,2026-06-23 01:55:51.361,,,,
36C2E511-48F1-4E50-9EF9-5E8306129DA8,617,Monroe 3131,-34.6573569,-58.6967579,150,1,2026-06-23 01:55:51.361,2026-06-23 01:55:51.361,,,,
EC50879A-B3AE-4803-975C-5E89EFCD7E3C,876,Luis Agote 3092,-31.4241290,-64.2284514,150,1,2026-06-23 01:55:51.361,2026-06-23 01:55:51.361,,,,
5FC1BA20-DA1F-4433-80D3-5EA71949F1FD,623,Av. Rivadavia 2520,-34.6099044,-58.4020804,150,1,2026-06-23 01:55:51.361,2026-06-23 01:55:51.361,,,,
820D2525-3152-4D21-BEB4-5F39E5CC0FBB,747,"José Antonio Cabrera 4106, C1186 Cdad. Autónoma de Buenos Aires",-34.5960360,-58.4244016,150,1,2026-06-23 01:55:51.361,2026-06-23 01:55:51.361,,,,
BAF60BA8-CE0C-4F15-AB3E-5FAD9F35E299,769,San Martín 625,-36.3137546,-57.6729157,150,1,2026-06-23 01:55:51.361,2026-06-23 01:55:51.361,,,,
4C9B8B84-DE53-4C81-9B92-5FC1F2602CAC,327,Av. Las Heras 2643,-34.5847883,-58.4001938,150,1,2026-06-23 01:55:51.361,2026-06-23 01:55:51.361,,,,
5CAB073A-2118-4E88-9F7E-5FC257A2812F,591,Juan Domingo Peron 4177,-34.6852108,-58.5449668,150,1,2026-06-23 01:55:51.361,2026-06-23 01:55:51.361,,,,
3F075038-551B-4DF9-A5CF-6033EAE23579,365,Av. Nazca 1944,-34.6119770,-58.4809723,150,1,2026-06-23 01:55:51.361,2026-06-23 01:55:51.361,,,,
BF100F3E-E3DB-461F-9561-6065E135BE34,400,"Del Barco Centenera 177, C1424 Cdad. Autónoma de Buenos Aires, Argentina",-34.6216650,-58.4410930,150,1,2026-06-23 01:55:51.361,2026-06-23 11:26:35.483,ChIJcQXdjjjKvJUREDoBH8Jzzhc,,,
FA0C484B-68A6-473B-BC24-60751582950C,6003,Bv. Sarmiento 870,-32.4190651,-63.2395278,150,1,2026-06-23 01:55:51.361,2026-06-23 01:55:51.361,,,,
EE5BAE59-4747-4804-8428-6097B6B36395,459,Camino Gral Belgrano 4861,-34.8261339,-58.1831622,150,1,2026-06-23 01:55:51.361,2026-06-23 01:55:51.361,,,,
F22119C5-E1CF-4245-96CB-60D46BEA645E,649,Emilio Castro 6815,-34.6519886,-58.5155107,150,1,2026-06-23 01:55:51.361,2026-06-23 01:55:51.361,,,,
6BE12F32-5CA0-488E-AEB0-61250C4675D1,534,Martiniano Leguizamon 1576,-34.6534233,-58.5071396,150,1,2026-06-23 01:55:51.361,2026-06-23 01:55:51.361,,,,
B2FF57BE-B8DF-4366-8335-615A2172AC28,684,Mexico 1530,-34.6155414,-58.3879248,150,1,2026-06-23 01:55:51.361,2026-06-23 01:55:51.361,,,,
7B2E81D1-54E2-443E-B187-6177F0F9A17C,616,Rio de Janeiro 71,-33.8877330,-60.5740721,150,1,2026-06-23 01:55:51.361,2026-06-23 01:55:51.361,,,,
8894CC03-9625-4C52-BF6A-6195AC9FB300,628,Av. Rivadavia 4119,-34.6127079,-58.4238317,150,1,2026-06-23 01:55:51.361,2026-06-23 01:55:51.361,,,,
95084224-8090-4E63-8BE9-61E15FA5A790,791,Av. Francisco Beiro 3345,-34.5986535,-58.5001439,150,1,2026-06-23 01:55:51.361,2026-06-23 01:55:51.361,,,,
7A46AC0B-5D5A-4297-BC0F-6297A5B04197,307,Av. Las Heras 1936,-31.4418345,-61.2509578,150,1,2026-06-23 01:55:51.361,2026-06-23 01:55:51.361,,,,
B294CEA6-10CB-4641-8F78-64C0A978155C,6010,Dean Funes 1791,-24.7677042,-65.4060299,150,1,2026-06-23 01:55:51.361,2026-06-23 01:55:51.361,,,,
805E055D-A5E6-4108-8311-654C007436D3,216,Maipu 900,-34.5296414,-58.4805194,150,1,2026-06-23 01:55:51.361,2026-06-23 01:55:51.361,,,,
8E83BB0A-6874-405D-9654-65752697C779,6028,Santiago del Estero 1200,-38.3592777,-60.2788728,150,1,2026-06-23 01:55:51.361,2026-06-23 01:55:51.361,,,,
F09DAD23-76F6-4F1D-8EF9-65AC25C7D477,211,Italia y Sáenz Valiente,-34.4869685,-58.5058188,150,1,2026-06-23 01:55:51.361,2026-06-23 01:55:51.361,,,,
4E4A5238-D4F1-4CC5-8343-667AA3E477B9,466,29 de septiembre 1880,-34.7063184,-58.3898736,150,1,2026-06-23 01:55:51.361,2026-06-23 01:55:51.361,,,,
C4CEACB4-FBFD-4339-ADD0-669A3BB57B03,556,Grecia 3595,-34.5465096,-58.4632314,150,1,2026-06-23 01:55:51.361,2026-06-23 01:55:51.361,,,,
5FC0B4B1-8AD2-44D8-94C2-671E1CEED5E3,748,Malabia 494,-34.5982214,-58.4385518,150,1,2026-06-23 01:55:51.361,2026-06-23 01:55:51.361,,,,
E31DCECF-477B-4918-B11D-6736B81F06FB,245,Av. San Martín 2999,-34.6022496,-58.4673340,150,1,2026-06-23 01:55:51.361,2026-06-23 01:55:51.361,,,,
7318CE9A-8AED-4E89-A3D6-67380C51FB15,735,Av. Pueyrredon 2120,-34.5878046,-58.3978770,150,1,2026-06-23 01:55:51.361,2026-06-23 01:55:51.361,,,,
58DE30D9-F2AF-4ACA-B024-67DDF5F7318F,413,Venezuela 4086,-34.5503122,-58.5071012,150,1,2026-06-23 01:55:51.361,2026-06-23 01:55:51.361,,,,
753A2229-A537-414A-99AE-68281B6FEFEB,419,Olavarria 469,-34.4529357,-58.8949649,150,1,2026-06-23 01:55:51.361,2026-06-23 01:55:51.361,,,,
4FC51F61-8C72-4098-A3DF-684878446D8F,346,Suarez 1599,-34.6385178,-58.3733779,150,1,2026-06-23 01:55:51.361,2026-06-23 01:55:51.361,,,,
7D8550A7-0013-47A6-B594-68C2F7D4DEED,741,Av. Triunvirato 4210,-34.5783115,-58.4802253,150,1,2026-06-23 01:55:51.361,2026-06-23 01:55:51.361,,,,
1A038D30-4EB5-4929-A1B3-694C72711D29,829,Arribeños 2862,-34.5511347,-58.4560213,150,1,2026-06-23 01:55:51.361,2026-06-23 01:55:51.361,,,,
34E5221D-9501-4DE0-A1C8-697A05CA20B3,622,Av. Boyaca 1082,-34.6158235,-58.4643405,150,1,2026-06-23 01:55:51.361,2026-06-23 01:55:51.361,,,,
467DE8DF-9812-40E3-8785-6C5F20E19548,451,Guatambu 12,-34.6763412,-58.6807874,150,1,2026-06-23 01:55:51.361,2026-06-23 01:55:51.361,,,,
B3EF7A70-4C91-477D-A295-6D42B50DAAC9,406,Salta 1637,-29.1674351,-56.6477229,150,1,2026-06-23 01:55:51.361,2026-06-23 01:55:51.361,,,,
1F4AFEAE-6DEC-4663-88C0-6D96BB0F51A3,802,Artigas 4925,-34.5523222,-58.5586750,150,1,2026-06-23 01:55:51.361,2026-06-23 01:55:51.361,,,,
51BA3FB2-1AB0-4B50-904B-6DE955C43EF6,671,Mcal. Antonio Jose Sucre 2774,-34.5658947,-58.4584907,150,1,2026-06-23 01:55:51.361,2026-06-23 01:55:51.361,,,,
FCE5B92C-A114-48E8-8AF8-6E4003EF05CB,543,Av. Olazabal 5179,-34.5769702,-58.4867215,150,1,2026-06-23 01:55:51.361,2026-06-23 01:55:51.361,,,,
785AB7A7-105E-41B3-AE53-6F00BC608A4E,685,Pareja 4890,-34.6054825,-58.5239406,150,1,2026-06-23 01:55:51.361,2026-06-23 01:55:51.361,,,,
7D90E479-3EA9-44DA-9331-6F9112F28A4A,199,Av. Cordoba 1439,-24.1819962,-65.3139819,150,1,2026-06-23 01:55:51.361,2026-06-23 01:55:51.361,,,,
C819E448-C03D-4B96-9F5A-727C1A0530F4,683,Av. Crámer 2463,-34.5610405,-58.4640354,150,1,2026-06-23 01:55:51.361,2026-06-23 01:55:51.361,,,,
03E75C7B-3CF8-4280-9B67-745B5CEAF32B,864,Fray Cayetano Rodriguez 635,-31.3611469,-64.1660853,150,1,2026-06-23 01:55:51.361,2026-06-23 01:55:51.361,,,,
9DBFC6FC-1269-4615-8B43-74EAC2738979,849,Av. Monroe 5771,-34.5788216,-58.4941191,150,1,2026-06-23 01:55:51.361,2026-06-23 01:55:51.361,,,,
2DB3DAE4-534A-4090-9BE9-753A908A1CA4,645,Luis María Drago 287,-34.6015104,-58.4371889,150,1,2026-06-23 01:55:51.361,2026-06-23 01:55:51.361,,,,
CB90269A-275C-43EE-81D7-75A729B23A3C,859,Thames 647,-34.5942821,-58.4413882,150,1,2026-06-23 01:55:51.361,2026-06-23 01:55:51.361,,,,
BA7ED60F-F972-4395-89F3-75B188A8ED12,693,Av. Pedro Goyena 1680,-34.6284656,-58.4521490,150,1,2026-06-23 01:55:51.361,2026-06-23 01:55:51.361,,,,
550844F1-000A-4CAA-A573-762D0073B116,336,Charcas 3315 II,-34.5915262,-58.4125311,150,1,2026-06-23 01:55:51.361,2026-06-23 01:55:51.361,,,,
6A4E86C7-DF13-45C9-87DA-76D8A42236A0,6026,Av. Colón 423,-32.8939007,-68.8459919,150,1,2026-06-23 01:55:51.361,2026-06-23 01:55:51.361,,,,
C82346FC-901B-4551-B05D-7738FA188794,759,Juan Ramirez Velasco 745,-34.5962046,-58.4387366,150,1,2026-06-23 01:55:51.361,2026-06-23 01:55:51.361,,,,
F03FA0F9-8213-4B4D-B395-77F88AD3FB17,533,Rosario 85,-38.8754405,-62.0563091,150,1,2026-06-23 01:55:51.361,2026-06-23 01:55:51.361,,,,
E846428D-245E-4628-9A41-780E1FF36749,355,Pueyrredon 1054,-29.8862913,-60.2859786,150,1,2026-06-23 01:55:51.361,2026-06-23 01:55:51.361,,,,
F025357C-F275-4598-A5BA-7821641B2F11,848,Av. Elcano 4200,-34.5851570,-58.4605378,150,1,2026-06-23 01:55:51.361,2026-06-23 01:55:51.361,,,,
716C7D76-4BDE-4C99-87A3-78919047F2C3,636,Ayacucho 1401,-33.0583716,-61.1756945,150,1,2026-06-23 01:55:51.361,2026-06-23 01:55:51.361,,,,
B573FD34-BD64-4DAF-A34D-7A4FA1CBB572,536,Av. Dr. Ricardo Balbin 4189,-31.3984436,-64.1374159,150,1,2026-06-23 01:55:51.361,2026-06-23 01:55:51.361,,,,
EBE00A4A-9D62-4A9D-887E-7B03AB2C64B5,371,Av. Olazabal 5483,-34.5791263,-58.4904221,150,1,2026-06-23 01:55:51.361,2026-06-23 01:55:51.361,,,,
B0EBF0A8-2A52-4E2D-9EE2-7B06F1F45968,756,Paraguay 3079,-34.5952029,-58.4106968,150,1,2026-06-23 01:55:51.361,2026-06-23 01:55:51.361,,,,
77B9BCE9-BEF0-4056-AF1B-7C1CD27E4562,496,José Hernandez 130,-31.3365372,-61.8204692,150,1,2026-06-23 01:55:51.361,2026-06-23 01:55:51.361,,,,
5B2AA277-C7C4-4EE5-8A71-7CCBD2C0FAE5,656,Viamonte 170,-32.9676326,-60.6298938,150,1,2026-06-23 01:55:51.361,2026-06-23 01:55:51.361,,,,
DFC79941-7FA6-40A0-9D2A-7D2A5F2B0712,550,Sarmiento 3885,-31.6340900,-60.6923028,150,1,2026-06-23 01:55:51.361,2026-06-23 01:55:51.361,,,,
064B5E04-484C-4AA2-A170-7E2F28A68BD6,487,La Rioja 2040,-34.5173985,-58.5413544,150,1,2026-06-23 01:55:51.361,2026-06-23 01:55:51.361,,,,
E24081A0-83BF-4674-A9D2-7EC2BF7520B2,733,"Av. Lisandro de la Torre 790, C1408 Cdad. Autónoma de Buenos Aires",-34.6475762,-58.5198327,150,1,2026-06-23 01:55:51.361,2026-06-23 01:55:51.361,,,,
0870BB0B-49BF-4CFF-916B-7F52F619F4DA,497,Av. Pte. J. D. Perón 25694,-34.6641523,-58.7275672,150,1,2026-06-23 01:55:51.361,2026-06-23 01:55:51.361,,,,
260FE814-C787-4563-95F9-7FB297532C9E,573,Av. Cordoba 3721,-34.5977840,-58.4191903,150,1,2026-06-23 01:55:51.361,2026-06-23 01:55:51.361,,,,
F3EA27E6-1AB4-4D9C-9556-80CB1C2C5980,757,Av. Santa Fe 2429,-34.5946873,-58.4014658,150,1,2026-06-23 01:55:51.361,2026-06-23 01:55:51.361,,,,
61AC1FA4-57DB-49CC-BD97-8114DC123380,813,Av. Colon 1088,-37.1485919,-58.4830166,150,1,2026-06-23 01:55:51.361,2026-06-23 01:55:51.361,,,,
5100944E-C6A9-41B7-A8DF-81674BFEFD66,667,Directorio 4989,-34.6507563,-58.4909057,150,1,2026-06-23 01:55:51.361,2026-06-23 01:55:51.361,,,,
446772ED-96E4-4D95-A419-816DC6B28E1E,362,Av. Directorio 1069,-34.6292999,-58.4425684,150,1,2026-06-23 01:55:51.361,2026-06-23 01:55:51.361,,,,
08F6330C-3CD2-4319-8506-81A6FB0F2655,682,Viamonte 702,-34.5999573,-58.3768136,150,1,2026-06-23 01:55:51.361,2026-06-23 01:55:51.361,,,,
1FDE999E-7BB4-48C8-91D5-81F5A2147571,595,Cosquin 78,-34.6399121,-58.5236259,150,1,2026-06-23 01:55:51.361,2026-06-23 01:55:51.361,,,,
80504EB8-B0C0-482E-A008-82DB0C73CACC,589,Peru 487,-31.4518665,-60.9066745,150,1,2026-06-23 01:55:51.361,2026-06-23 01:55:51.361,,,,
1BAA4B1D-2142-4763-A73B-82E78A086A71,715,Av. Cordoba 4967,-34.5916473,-58.4340633,150,1,2026-06-23 01:55:51.361,2026-06-23 01:55:51.361,,,,
53EBF57D-E4D3-4560-9BCA-830A42A32A35,341,Viamonte 352,-32.9671817,-60.6323960,150,1,2026-06-23 01:55:51.361,2026-06-23 01:55:51.361,,,,
81C705E6-75EF-4605-8D05-83381549B17F,280,"Av. República de China 1045, X5023BAA Córdoba",-31.3971672,-64.1989784,150,1,2026-06-23 01:55:51.361,2026-06-23 01:55:51.361,,,,
0E467E45-B53D-4DFB-900B-83844B29D7F7,295,Bv. Granaderos 2906 (esq. Virgen de la Merced),-31.3746171,-64.2138555,150,1,2026-06-23 01:55:51.361,2026-06-23 01:55:51.361,,,,
2FBFA161-DC81-4493-BB9F-83B7453A7699,613,Av. Congreso 2774,-34.5572567,-58.4659774,150,1,2026-06-23 01:55:51.361,2026-06-23 01:55:51.361,,,,
73FC2F6A-1968-4BEC-91A8-84B370128809,449,Sallares 151,-34.8078566,-58.2754171,150,1,2026-06-23 01:55:51.361,2026-06-23 01:55:51.361,,,,
42CA2CEB-82A8-4B5A-B154-8533426401FA,837,Nuñez 3802,-34.5569752,-58.4797305,150,1,2026-06-23 01:55:51.361,2026-06-23 01:55:51.361,,,,
6406CD18-AC1F-41FF-9BFE-855F3057DC95,6027,Ozamis sur S/N,-32.9986023,-68.7936454,150,1,2026-06-23 01:55:51.361,2026-06-23 01:55:51.361,,,,
DB66BA58-758F-48E1-8205-85C10FF6A67C,410,Tucumán 2173,-33.0482830,-61.1640624,150,1,2026-06-23 01:55:51.361,2026-06-23 01:55:51.361,,,,
22EB7EEF-3201-4979-8F3E-860149323EB9,6035,Santa Ana 2405,-34.5926915,-58.6463852,150,1,2026-06-23 01:55:51.361,2026-06-23 01:55:51.361,,,,
A2FA0896-ACB5-4D78-8AA6-86259063694C,787,Alvear 2446,-34.5807877,-58.5502011,150,1,2026-06-23 01:55:51.361,2026-06-23 01:55:51.361,,,,
AEFA158F-E92A-4D6A-AB33-86EA10F2BB6F,310,Chivilcoy 3840,-34.6005091,-58.5112353,150,1,2026-06-23 01:55:51.361,2026-06-23 01:55:51.361,,,,
F66E7389-4EFD-48E2-9917-8792B6D10F6B,315,Jose Pedro Varela 3191,-34.5984873,-58.4972934,150,1,2026-06-23 01:55:51.361,2026-06-23 01:55:51.361,,,,
80485F18-E01A-43DA-9E95-87A5E974D8A9,367,Av. Estado de Israel 4309,-34.5979168,-58.4265725,150,1,2026-06-23 01:55:51.361,2026-06-23 01:55:51.361,,,,
5F7DC512-FB3F-4099-B6AC-88CC3AD4CA28,426,Montañeses 2067,-34.7002327,-58.5685823,150,1,2026-06-23 01:55:51.361,2026-06-23 01:55:51.361,,,,
A77269DC-2414-45BE-B49D-89D8B77F64A0,6024,Agustín Alvarez 37,-35.9635044,-62.7323898,150,1,2026-06-23 01:55:51.361,2026-06-23 01:55:51.361,,,,
A5FD5A4F-20B8-4AB9-97A3-8A8317B63667,438,"25 de Mayo 438, B1613FNB Los Polvorines, Provincia de Buenos Aires, Argentina",-34.5171040,-58.7152895,50,1,2026-06-17 15:51:08.870,2026-06-17 15:51:08.870,Ek0yNSBkZSBNYXlvIDQzOCwgQjE2MTNGTkIgTG9zIFBvbHZvcmluZXMsIFByb3ZpbmNpYSBkZSBCdWVub3MgQWlyZXMsIEFyZ2VudGluYSIxEi8KFAoSCdfPgwtKvbyVEdmF113ut-4HELYDKhQKEgkNp9KJ0qK8lRGFoevEdzNfAA,,,
3826E56D-F023-4FEF-B351-8AD1C9C4774A,825,Boulevard Sarmiento 5,-33.6442843,-61.4411411,150,1,2026-06-23 01:55:51.361,2026-06-23 01:55:51.361,,,,
FC737DCF-CE9B-4E48-831E-8B99D983BDEB,632,Amenabar 2702,-32.9682431,-60.6666217,150,1,2026-06-23 01:55:51.361,2026-06-23 01:55:51.361,,,,
960452CE-E498-474D-8A7C-8B9D0E349267,806,Jacinto de Altolaguirre 2222,-31.3832289,-64.1340637,150,1,2026-06-23 01:55:51.361,2026-06-23 01:55:51.361,,,,
E40671A2-747B-45F8-8101-8C6598F36F36,788,Mansilla 3620,-34.5910160,-58.4146834,150,1,2026-06-23 01:55:51.361,2026-06-23 01:55:51.361,,,,
A80879BC-7EB4-41A9-A79B-8C7D5557CA6F,551,Av. Monroe 3576,-34.5653161,-58.4711518,150,1,2026-06-23 01:55:51.361,2026-06-23 01:55:51.361,,,,
6B66ED15-B629-4B31-880A-8EC22B4F0804,339,Av. Los Incas 4466,-34.5811508,-58.4740976,150,1,2026-06-23 01:55:51.361,2026-06-23 01:55:51.361,,,,
BC2AAB50-88A3-4BAB-994C-8F769DB0608A,630,Araoz 2148,-34.5882176,-58.4190288,150,1,2026-06-23 01:55:51.361,2026-06-23 01:55:51.361,,,,
1C58F84F-32A3-4816-8985-8FC8690A003E,428,Rosario 4558,-34.6189438,-58.7465505,150,1,2026-06-23 01:55:51.361,2026-06-23 01:55:51.361,,,,
FD92150F-907D-4739-941A-91039B7BA0EF,775,Av. Angel Gallardo 499,-34.6049597,-58.4379750,150,1,2026-06-23 01:55:51.361,2026-06-23 01:55:51.361,,,,
6BAB9327-5366-4188-950A-91FA13C53430,537,Charcas 4367,-34.6740402,-58.5139786,150,1,2026-06-23 01:55:51.361,2026-06-23 01:55:51.361,,,,
FEA2E7EF-1845-4923-9C9E-920287AED193,841,Paso de los Andes 2212,-32.9033218,-68.8603400,150,1,2026-06-23 01:55:51.361,2026-06-23 01:55:51.361,,,,
3E6289C0-5D8B-4574-8900-92059885F4D1,639,Av. Pedro Goyena 188,-34.6254166,-58.4299156,150,1,2026-06-23 01:55:51.361,2026-06-23 01:55:51.361,,,,
6752E4C1-35C3-4F9F-A65A-922CF1E87834,658,Larrazabal 265,-34.6421151,-58.5139010,150,1,2026-06-23 01:55:51.361,2026-06-23 01:55:51.361,,,,
EC03C80F-78C2-42D7-BE9A-936642F7229B,732,Ambrosetti 758,-34.6094839,-58.4385589,150,1,2026-06-23 01:55:51.361,2026-06-23 01:55:51.361,,,,
16CBC6BC-EAFA-4BFC-9C48-9456EE101E60,398,Av. Rivadavia 9436,-34.6371074,-58.4970745,150,1,2026-06-23 01:55:51.361,2026-06-23 01:55:51.361,,,,
EF9921D7-E7FC-4D6D-8B91-946F89BCBEC5,692,Neuquén 520,-34.6159426,-58.4378639,150,1,2026-06-23 01:55:51.361,2026-06-23 01:55:51.361,,,,
1E50E816-D3FF-4C2A-B2B2-94C3CF7FE08F,562,San Martin 620,-25.7976995,-64.9740754,150,1,2026-06-23 01:55:51.361,2026-06-23 01:55:51.361,,,,
0890391E-99ED-465A-8818-94C75C0B58A5,512,Francisco Ramirez 43,-32.3023003,-59.1386875,150,1,2026-06-23 01:55:51.361,2026-06-23 01:55:51.361,,,,
F8BDB39E-0D45-425C-B70D-955C76815ED6,637,Av. San Martin 2218,-29.1807714,-58.0921108,150,1,2026-06-23 01:55:51.361,2026-06-23 01:55:51.361,,,,
8D785A11-31CB-45F8-92AB-95A288E0D805,575,Av. Directorio 483,-34.6279846,-58.4335760,150,1,2026-06-23 01:55:51.361,2026-06-23 01:55:51.361,,,,
BFBDF668-62BD-470E-8F65-96447BA2CA2F,793,Boulevard San Juan 835,-31.4178672,-64.1971757,150,1,2026-06-23 01:55:51.361,2026-06-23 01:55:51.361,,,,
725C05AE-2BFE-43B9-B6F9-969DAD59621F,861,Prudencio Bustos 122,-31.6576130,-64.4291910,150,1,2026-06-23 01:55:51.361,2026-06-23 01:55:51.361,,,,
2F454B7B-0A5A-4039-BAD2-96CD11E8A9CC,633,Bolivar 270,-34.2883155,-60.2513828,150,1,2026-06-23 01:55:51.361,2026-06-23 01:55:51.361,,,,
C7909D5F-C62B-4426-AA0A-97619ED65436,299,Arenales 975,-34.1755195,-58.9535172,150,1,2026-06-23 01:55:51.361,2026-06-23 01:55:51.361,,,,
119CC841-7DA3-4AF4-9175-97AFC7FDC387,751,Esmeralda 1040,-34.5958635,-58.3784609,150,1,2026-06-23 01:55:51.361,2026-06-23 01:55:51.361,,,,
FDF508D5-6642-49C5-96C9-97D09962883F,585,Lima 945,-34.6190833,-58.3814510,150,1,2026-06-23 01:55:51.361,2026-06-23 01:55:51.361,,,,
36808B10-99E9-4EBA-9EA5-97F4C6E4727B,6002,Membrillar 33,-34.6288044,-58.4610223,150,1,2026-06-23 01:55:51.361,2026-06-23 01:55:51.361,,,,
7F9A7D6D-2302-46D6-B666-999FB803FE96,818,Av. Vélez Sarsfield 1045,-31.4270925,-64.1917027,150,1,2026-06-23 01:55:51.361,2026-06-23 01:55:51.361,,,,
055B8C4E-70C2-44E4-8E99-9A2C5FC94411,408,Peru 916,-31.2418632,-61.5033288,150,1,2026-06-23 01:55:51.361,2026-06-23 01:55:51.361,,,,
FD139185-0175-4CBA-8CB7-9A77933699F8,555,Guemes 4161,-34.5847817,-58.4192236,150,1,2026-06-23 01:55:51.361,2026-06-23 01:55:51.361,,,,
BA82C7E4-D4D6-447E-871E-9B8B6FA8AF2A,723,"Av. Leandro N. Alem 198, C1003 Cdad. Autónoma de Buenos Aires, Argentina",-34.6054455,-58.3703929,150,1,2026-06-18 12:01:26.388,2026-06-18 12:01:37.694,ChIJ_0QXQC01o5URb_8xpk2mK8k,,,
86EDCB5C-FB8A-4075-A724-9BADD99F81CE,314,Segurola 2344,-34.7158692,-58.7209673,150,1,2026-06-23 01:55:51.361,2026-06-23 01:55:51.361,,,,
D5C28BE3-AB46-4302-AA84-9C02D49682AC,445,Av. Arana 231,-34.8565089,-58.0825956,150,1,2026-06-23 01:55:51.361,2026-06-23 01:55:51.361,,,,
4F0B8E67-FA27-43AA-A736-9C8DE47C322E,772,Lavalleja 49,-34.6034069,-58.4383056,150,1,2026-06-23 01:55:51.361,2026-06-23 01:55:51.361,,,,
26470841-BE4F-4A98-A2D4-9DD65134D942,424,Bartolome Mitre 226,-34.1990620,-60.7306103,150,1,2026-06-23 01:55:51.361,2026-06-23 01:55:51.361,,,,
5E2ECEC8-D0E0-4A24-96F5-9DE43EB5CF1D,6006,Boulevard Los Granaderos 2269,-31.3785304,-64.2040494,150,1,2026-06-23 01:55:51.361,2026-06-23 01:55:51.361,,,,
B28D80D2-6957-434A-AF5D-9E853EA3ADAB,852,Saenz Peña 130,-33.0173958,-60.6046879,150,1,2026-06-23 01:55:51.361,2026-06-23 01:55:51.361,,,,
BD19FEF6-EAB7-49BD-AF74-9EECE0FCE775,547,Av. Dorrego 851,-34.5913348,-58.4471927,150,1,2026-06-23 01:55:51.361,2026-06-23 01:55:51.361,,,,
ADF11871-E2AF-4953-BB3F-9F9D8AE3DD4E,809,José A. Cabrera 3291,-34.5968315,-58.4128877,150,1,2026-06-23 01:55:51.361,2026-06-23 01:55:51.361,,,,
EF25B9C1-7835-4B0D-B74A-9FCCE5D23BE7,6030,Av. Castro Barros 858,-31.3972084,-64.1990856,150,1,2026-06-23 01:55:51.361,2026-06-23 01:55:51.361,,,,
D1351FAC-A323-4F1C-928C-A026D65D225B,867,9 de Julio 156,-39.0528202,-67.3892768,150,1,2026-06-23 01:55:51.361,2026-06-23 01:55:51.361,,,,
0F360B23-44DB-4FCE-BF15-A02C23B5EA7D,546,Moreno 1902,-31.4275378,-64.1662010,150,1,2026-06-23 01:55:51.361,2026-06-23 01:55:51.361,,,,
EF3E32EC-A876-44C9-81D4-A051E622C10B,485,"Av, Pres. Juan Domingo Perón 23866, B1718 San Antonio de Padua, Provincia de Buenos Aires",-34.6659376,-58.6990502,150,1,2026-06-23 01:55:51.361,2026-06-23 01:55:51.361,,,,
C5A6B8FD-F55C-4107-AB1F-A05BBDF36985,326,Alvarez Jonte 4872,-34.7176591,-58.7796063,150,1,2026-06-23 01:55:51.361,2026-06-23 01:55:51.361,,,,
95F43A12-B2ED-4C93-BF04-A103BE4EEC1A,609,Av. del Libertador 4534,-34.5665719,-58.4315700,150,1,2026-06-23 01:55:51.361,2026-06-23 01:55:51.361,,,,
44FB3871-390A-4810-B460-A114A1131941,711,Av. Alvarez Thomas 372,-34.5812451,-58.4490378,150,1,2026-06-23 01:55:51.361,2026-06-23 01:55:51.361,,,,
B94FA90E-7884-43CB-B1C4-A18A3E5572DE,872,San Martín 4840,-32.9933677,-60.6473827,150,1,2026-06-23 01:55:51.361,2026-06-23 01:55:51.361,,,,
F056D10E-81D6-4A7F-8E78-A1BB93CFF89F,458,Claudio de Alas 2146,-34.7202674,-58.4629046,150,1,2026-06-23 01:55:51.361,2026-06-23 01:55:51.361,,,,
3640CD7A-2D31-4172-B317-A1D16D1FB90F,338,Tucuman 831,-33.1301452,-64.3279626,150,1,2026-06-23 01:55:51.361,2026-06-23 01:55:51.361,,,,
A4EC66D5-FA5A-4020-93A4-A208DFAD3BCE,552,Avenida Rivadavia 3751,-34.6109349,-58.4191050,150,1,2026-06-23 17:53:57.269,2026-06-23 17:53:57.269,ChIJZWvZC1_KvJURODHuRZO0RWE,Almagro,Buenos Aires,Express
CD8DB0EA-1012-43E1-9C15-A213E2097AF9,618,Bulnes 2751,-34.5804679,-58.4058870,150,1,2026-06-23 01:55:51.361,2026-06-23 01:55:51.361,,,,
F5A142F2-B407-4A23-9DB5-A32D3F1B2F05,784,Jose María Bedoya 695,-31.3979579,-64.1866427,150,1,2026-06-23 01:55:51.361,2026-06-23 01:55:51.361,,,,
C331A931-6A2B-4EC2-90DD-A3483A68275B,808,Av. Constituyentes 4081,-34.5849527,-58.4886635,150,1,2026-06-23 01:55:51.361,2026-06-23 01:55:51.361,,,,
C1E39E16-5351-4B8E-9F67-A35EF6B26F5B,583,Av. de Mayo 1241,-33.8906838,-60.5793748,150,1,2026-06-23 01:55:51.361,2026-06-23 01:55:51.361,,,,
40F26197-5E68-4171-9AE9-A3C57D039497,790,Ituzaingó 921,-30.3124419,-61.2377682,150,1,2026-06-23 01:55:51.361,2026-06-23 01:55:51.361,,,,
A26040AB-C5EE-4A28-9F7E-A3CC89002193,306,Fray Justo Santa María de Oro 2709,-23.8066358,-64.7826024,150,1,2026-06-23 01:55:51.361,2026-06-23 01:55:51.361,,,,
F04963F3-7F0E-4309-88B9-A3E0EC5F7AFB,260,Av. Las Heras 2397,-34.5865596,-58.3982299,150,1,2026-06-23 01:55:51.361,2026-06-23 01:55:51.361,,,,
8A4D4607-06A6-4C36-A491-A56A084F9C26,783,Av. Cabildo 1287,-34.5679132,-58.4489334,150,1,2026-06-23 01:55:51.361,2026-06-23 01:55:51.361,,,,
55F38FAD-0BAF-43F0-9F48-A5BA130636D8,482,Sullivan 1597,-34.6540419,-58.7144047,150,1,2026-06-23 01:55:51.361,2026-06-23 01:55:51.361,,,,
D052C040-6A27-4D1B-954C-A61DDF30EBB0,6036,"C. Dr. Juan Felipe Aranguren 617, C1405 Cdad. Autónoma de Buenos Aires",-34.6135052,-58.4405781,150,1,2026-06-23 01:55:51.361,2026-06-23 01:55:51.361,,,,
76A49F56-EE67-44CC-AABC-A64CF606D22C,457,Sarmiento 72,-34.8303634,-58.3801057,150,1,2026-06-23 01:55:51.361,2026-06-23 01:55:51.361,,,,
0EF918A3-39D2-46DE-ADF7-A760AE82A6AB,388,Alte. Segui 849,-34.6153214,-58.4563502,150,1,2026-06-23 01:55:51.361,2026-06-23 01:55:51.361,,,,
C5118434-265A-458E-A7B1-A86AA8F5A685,495,Av 14 5072,-36.5521718,-56.7121879,150,1,2026-06-23 01:55:51.361,2026-06-23 01:55:51.361,,,,
FD358469-2830-4376-85BE-A88DAB166955,6013,Viamonte 3345,-32.9598082,-60.6736767,150,1,2026-06-23 01:55:51.361,2026-06-23 01:55:51.361,,,,
2E5A9C70-174C-4E66-AD61-A8C02E78101C,452,Av. Centenario 5331,-34.7535109,-58.2381879,150,1,2026-06-23 01:55:51.361,2026-06-23 01:55:51.361,,,,
6A92FE60-F9A1-4BED-ABA5-AAC0A50C8F38,559,Teodoro Garcia 2310,-34.5683246,-58.4445596,150,1,2026-06-23 01:55:51.361,2026-06-23 01:55:51.361,,,,
34E1FC9A-4498-4218-9F7B-AADD30BFCFF9,646,Baunes 2692,-34.5727740,-58.4895156,150,1,2026-06-23 01:55:51.361,2026-06-23 01:55:51.361,,,,
550C5020-17F8-430B-BFDE-AB2175F381BE,257,Av. Independencia 1520,-31.8584958,-61.5660810,150,1,2026-06-23 01:55:51.361,2026-06-23 01:55:51.361,,,,
35A1033A-9912-45BE-9DC1-AC24E1E51769,450,Bolivar 1343,-34.3904458,-58.7369966,150,1,2026-06-23 01:55:51.361,2026-06-23 01:55:51.361,,,,
284E88B0-D908-4B28-9754-AC66DEC739F7,642,"Gral. Paz 240, X5000 Córdoba, Argentina",-31.4125093,-64.1852877,150,1,2026-06-18 12:00:20.416,2026-06-18 12:01:10.059,ChIJUzBfdniYMpQRS8wDK8yXu28,,,
77DB717B-D320-49DB-BCA6-ACBDD0B316C4,528,Aguirre 236,-34.5998859,-58.4335678,150,1,2026-06-23 01:55:51.361,2026-06-23 01:55:51.361,,,,
A18D8E01-745B-40DE-B197-ACCC04097593,444,Camino Gral Belgrano 6498,-34.8262205,-58.1830238,150,1,2026-06-23 01:55:51.361,2026-06-23 01:55:51.361,,,,
0FA425E5-83D1-4085-923C-ADCB95F830E8,853,Av. Colón 636,-38.7246720,-62.2743152,150,1,2026-06-23 01:55:51.361,2026-06-23 01:55:51.361,,,,
2B96AB56-E1AF-4065-B2DE-ADD62A8D9BB4,6011,Av. Cólon 3060,-31.4021757,-64.2212541,150,1,2026-06-23 01:55:51.361,2026-06-23 01:55:51.361,,,,
35D881C6-661C-4251-A72C-ADFE3AFA515B,794,Mariano Fragueiro 2220,-31.3896712,-64.1838117,150,1,2026-06-23 01:55:51.361,2026-06-23 01:55:51.361,,,,
77BF0D62-2F96-44B5-86E6-AE23C73C8169,322,Del Carril 3210,-34.7208898,-58.8015557,150,1,2026-06-23 01:55:51.361,2026-06-23 01:55:51.361,,,,
4A19A970-C3CE-4350-84EB-AFD6EA0C0E89,530,Av. Rivadavia 6074,-34.6245677,-58.4512979,150,1,2026-06-23 01:55:51.361,2026-06-23 01:55:51.361,,,,
44071029-3757-43B2-833F-B06BF93BA70A,597,Sanabria 2733,-34.6111493,-58.5063828,150,1,2026-06-23 01:55:51.361,2026-06-23 01:55:51.361,,,,
4C079A90-EE5C-4691-96C7-B0B5E74DAE78,402,Av. Corrientes 1974,-32.9596919,-60.6458746,150,1,2026-06-23 01:55:51.361,2026-06-23 01:55:51.361,,,,
90EAD3C2-49CF-4214-96A5-B0CE6D9ABD49,422,Murature 2169,-34.4723118,-58.5570432,150,1,2026-06-23 01:55:51.361,2026-06-23 01:55:51.361,,,,
33FAC62C-C8A4-4CFF-A683-B2058C6BE83E,343,Amenabar 1187,-32.9719664,-60.6458686,150,1,2026-06-23 01:55:51.361,2026-06-23 01:55:51.361,,,,
1A8D4B3F-0A7E-4836-BD58-B224E8A00C67,577,Av. Córdoba 2038,-24.1816408,-65.3180511,150,1,2026-06-23 01:55:51.361,2026-06-23 01:55:51.361,,,,
3C6B40BB-0748-4A77-870C-B27C0D866B0B,261,Rivadavia 57,-33.4112004,-61.6016645,150,1,2026-06-23 01:55:51.361,2026-06-23 01:55:51.361,,,,
CF168962-7009-4B6F-BC22-B386EC6F0661,6019,Ruta 82 Esq. Calle Union,-33.0004205,-68.9083093,150,1,2026-06-23 01:55:51.361,2026-06-23 01:55:51.361,,,,
B9644EEA-CC1C-4E15-8C69-B3D36A4F94E9,442,Sarmiento 837,-30.0853602,-58.7912110,150,1,2026-06-23 01:55:51.361,2026-06-23 01:55:51.361,,,,
0575D83D-E480-4C10-A8E6-B3DC5A6693F8,171,Av. del Bicentenario de la Batalla de Salta 702,-24.7806159,-65.4019909,150,1,2026-06-23 01:55:51.361,2026-06-23 01:55:51.361,,,,
EA25F727-C9F8-4E63-BE68-B475F9FA4C8D,531,Arevalo 1736,-34.5806233,-58.4400433,150,1,2026-06-23 01:55:51.361,2026-06-23 01:55:51.361,,,,
71E47A2D-BA0F-40F0-A163-B47B8C227DE4,395,Federico Lacroze 4106,-34.5860186,-58.4545009,150,1,2026-06-23 01:55:51.361,2026-06-23 01:55:51.361,,,,
912887A0-AD2C-4CFB-96EA-B4847F232BA0,251,Arce 730,-34.5686170,-58.4348174,150,1,2026-06-23 01:55:51.361,2026-06-23 01:55:51.361,,,,
82EF82B5-7220-4537-B245-B48C8C2DB397,489,Av. Caseros 2423,-34.6354415,-58.3962857,150,1,2026-06-23 01:55:51.361,2026-06-23 01:55:51.361,,,,
41E8E853-C050-49BD-87FF-B4A72D3CA79E,164,Rojas 726,-34.6125961,-58.4448866,150,1,2026-06-23 01:55:51.361,2026-06-23 01:55:51.361,,,,
33915448-44D0-463F-A0D6-B4F10EF490F7,6020,Av. Godoy Cruz 55,-32.8839211,-68.8384135,150,1,2026-06-23 01:55:51.361,2026-06-23 01:55:51.361,,,,
6C725729-176E-45F5-A477-B52FFBFAF659,817,Duarte Quirós 2400,-31.4096598,-64.2156161,150,1,2026-06-23 01:55:51.361,2026-06-23 01:55:51.361,,,,
E5545268-A64B-4645-8F6D-B5A1089B09B9,312,Cerviño 4634,-34.5753597,-58.4227161,150,1,2026-06-23 01:55:51.361,2026-06-23 01:55:51.361,,,,
78A7158D-7720-40A4-A635-B5E41712334F,479,Eva Perón 4215,-34.7274369,-58.3548664,150,1,2026-06-23 01:55:51.361,2026-06-23 01:55:51.361,,,,
5768B44C-A858-42AB-9B5D-B6FEF34652ED,525,Crisologo Larralde 3721,-34.6944315,-58.3492496,150,1,2026-06-23 01:55:51.361,2026-06-23 01:55:51.361,,,,
F8853E4B-52E8-4DF4-B56F-B71732667404,447,Coronel D`Elia 1649,-34.6909576,-58.4080523,150,1,2026-06-23 01:55:51.361,2026-06-23 01:55:51.361,,,,
564C8D4C-CC26-43A2-9C91-B7310EAA10F4,6023,Av. San Martin 792,-32.8942025,-68.8403337,150,1,2026-06-23 01:55:51.361,2026-06-23 01:55:51.361,,,,
8AC90C00-CE75-4824-8D2F-B740266AF3A8,869,Av. Belgrano 140,-33.1106871,-60.7956506,150,1,2026-06-23 01:55:51.361,2026-06-23 01:55:51.361,,,,
42F1F36B-BEE0-431D-88D5-B74C8240A116,368,Cuba 2919 II,-34.7557312,-58.7055300,150,1,2026-06-23 01:55:51.361,2026-06-23 01:55:51.361,,,,
011A8B01-2DD4-4DF1-A5A9-B88846A30D7C,828,Av. Federico Lacroze 1735,-34.5639617,-58.4390721,150,1,2026-06-23 01:55:51.361,2026-06-23 01:55:51.361,,,,
63A674AF-AB86-43C1-BAB0-B983B7B094C4,605,Av. Juan Bautista Alberdi 7071,-34.6594745,-58.5130627,150,1,2026-06-23 01:55:51.361,2026-06-23 01:55:51.361,,,,
83B1D658-5E6E-419E-815E-BAB37F9DAD50,436,Parana 6543,-34.8416808,-58.4771329,150,1,2026-06-23 01:55:51.361,2026-06-23 01:55:51.361,,,,
2B34A8E8-5F04-4BB9-8C9F-BB1975BBDAC1,720,Independencia 585,-34.6645797,-58.7021776,150,1,2026-06-23 01:55:51.361,2026-06-23 01:55:51.361,,,,
C0CFD294-4465-40CB-948E-BB69480D3211,810,Av. Colón 1750,-38.7341383,-62.2861209,150,1,2026-06-23 01:55:51.361,2026-06-23 01:55:51.361,,,,
71FA66ED-9D20-4F68-9FF9-BB86127E8786,691,Av. La Plata 716,-34.6238416,-58.4274446,150,1,2026-06-23 01:55:51.361,2026-06-23 01:55:51.361,,,,
34E4E64C-5B6E-4E04-A0AE-BBD737E82E88,6021,Av. Godoy Cruz 178,-32.8836276,-68.8399927,150,1,2026-06-23 01:55:51.361,2026-06-23 01:55:51.361,,,,
96A861DE-1F70-4CC6-B370-BEAE7E150E8D,739,Franklin D Roosevelt 3002,-34.5608217,-58.4661799,150,1,2026-06-23 01:55:51.361,2026-06-23 01:55:51.361,,,,
C5CAC24E-0AA5-4A9C-9A2C-BFA9324E18B0,270,Jose Ingenieros 59 (Villa Carlos Paz),-34.4612143,-58.5276948,150,1,2026-06-23 01:55:51.361,2026-06-23 01:55:51.361,,,,
EA773BED-3E94-44D6-8887-C0772DF5F2FA,714,Mariscal Sucre 4230,-34.5742940,-58.4728453,150,1,2026-06-23 01:55:51.361,2026-06-23 01:55:51.361,,,,
CC5BF58D-BE27-42E3-A3A1-C137EF6A6CC6,634,Moreno 1401,-33.4393224,-62.0774752,150,1,2026-06-23 01:55:51.361,2026-06-23 01:55:51.361,,,,
C76813ED-08F8-4482-AF6D-C13E82113875,569,Av. Libertador 1140,-36.7212082,-56.6864124,150,1,2026-06-23 01:55:51.361,2026-06-23 01:55:51.361,,,,
F9E8D135-8ADA-4C4F-B5B9-C1B7510C3FE1,607,Chacabuco 727,-36.6108219,-64.2987878,150,1,2026-06-23 01:55:51.361,2026-06-23 01:55:51.361,,,,
7149A425-59C9-4B04-9EE3-C20662FB0D19,717,Junin 1460,-34.5912712,-58.3953654,150,1,2026-06-23 01:55:51.361,2026-06-23 01:55:51.361,,,,
A335BEEF-21BD-471E-ACB6-C263D5006369,323,Montes de Oca 304,-32.0463367,-61.7828183,150,1,2026-06-23 01:55:51.361,2026-06-23 01:55:51.361,,,,
A16A3245-46A6-4F7E-8BC0-C26CEA493C31,587,Rojas 16,-33.3696179,-60.2639108,150,1,2026-06-23 01:55:51.361,2026-06-23 01:55:51.361,,,,
BA37C354-A702-490D-8BDE-C3791AE886BA,281,Sagrada Familia 1305,-31.3867566,-64.2273756,150,1,2026-06-23 01:55:51.361,2026-06-23 01:55:51.361,,,,
81DE5D28-E71E-4332-9616-C3BC88DC704E,844,Nazaret 2950,-31.3927138,-64.2228309,150,1,2026-06-23 01:55:51.361,2026-06-23 01:55:51.361,,,,
E3D10AFC-49E6-43AD-B1B0-C44579E8201B,6032,Av. Boyacá 613,-34.6203098,-58.4610983,150,1,2026-06-23 01:55:51.361,2026-06-23 01:55:51.361,,,,
C847CC96-BAC8-4722-8EAB-C4789E9763C1,200,Av. Rivadavia 8421,-34.6339917,-58.4825844,150,1,2026-06-23 01:55:51.361,2026-06-23 01:55:51.361,,,,
4CFFB4D2-9E26-4ED2-A236-C4F6D34B9684,856,Bulnes 250,-34.6079126,-58.4187268,150,1,2026-06-23 01:55:51.361,2026-06-23 01:55:51.361,,,,
DB15DBED-FB9F-41FC-91F2-C5725FAEBF2B,833,Av. José Vicente Zapata 42,-32.8945931,-68.8399852,150,1,2026-06-23 01:55:51.361,2026-06-23 01:55:51.361,,,,
99183456-E14B-4931-ACB2-C5752560FF0F,755,Concejal Tribulato 1281,-34.5413125,-58.7136377,150,1,2026-06-23 01:55:51.361,2026-06-23 01:55:51.361,,,,
58650A66-767F-4087-B2A1-C660245FF0E8,433,"Av. Ing. Eduardo Madero 1050, B1669 Del Viso, Provincia de Buenos Aires, Argentina",-34.4494260,-58.7970238,150,1,2026-06-18 11:59:44.378,2026-06-18 12:00:01.110,ChIJPUMTWs6evJURFVy6C5timrM,,,
4F6522D0-1FC6-49A8-B6FC-C6B1C25763DA,863,Sarmiento 119,-34.6015531,-59.1737359,150,1,2026-06-23 01:55:51.361,2026-06-23 01:55:51.361,,,,
C1DC42EB-614C-4A05-B18D-C6BB4369F347,494,Francisco Segui 1519,-33.2266894,-60.3232688,150,1,2026-06-23 01:55:51.361,2026-06-23 01:55:51.361,,,,
D3DAA31F-B992-4421-80E7-C7D03043C9F3,476,Chilavert 1912,-31.3872340,-64.1465452,150,1,2026-06-23 01:55:51.361,2026-06-23 01:55:51.361,,,,
39DCC777-D27E-4C55-8D34-C832F28090BC,814,San Jeronimo 3034,-31.4236654,-64.1451030,150,1,2026-06-23 01:55:51.361,2026-06-23 01:55:51.361,,,,
C4F60D21-D7B2-4B0B-9CA1-C83D9E4F613B,786,Lima 987,-34.6196061,-58.3814372,150,1,2026-06-23 01:55:51.361,2026-06-23 01:55:51.361,,,,
1BF782A9-02CB-4F46-A60F-C86275CA209D,868,Gallo 931,-34.5989004,-58.4120613,150,1,2026-06-23 01:55:51.361,2026-06-23 01:55:51.361,,,,
1EBD1521-98AA-4D58-939B-C89DD68CE8FE,354,Parana 1053,-32.9400961,-60.6921943,150,1,2026-06-23 01:55:51.361,2026-06-23 01:55:51.361,,,,
C27112C7-086F-45C9-95FC-C8DB6F456AA4,329,Lavalle 1747,-29.4626652,-60.2211851,150,1,2026-06-23 01:55:51.361,2026-06-23 01:55:51.361,,,,
6CD29254-2F24-450F-8EB2-C8EFE69AA239,574,Garcia del Rio 3166,-34.7153618,-58.8037141,150,1,2026-06-23 01:55:51.361,2026-06-23 01:55:51.361,,,,
D25B5ABD-268B-42EC-81E1-C93BED6F2B1E,874,"Caraffa, Claudio Cuenca 1784",-31.3871101,-64.2152016,150,1,2026-06-23 01:55:51.361,2026-06-23 01:55:51.361,,,,
14395074-7B00-415D-BAA6-C9A8D3A24ABB,484,Salvador Maria del Carril 49,-34.6572470,-58.7629431,150,1,2026-06-23 01:55:51.361,2026-06-23 01:55:51.361,,,,
C0B75DE7-3211-4B9A-8B8E-CBD0B7C6F099,627,Paseo Colon 1179,-34.6214650,-58.3683350,150,1,2026-06-23 01:55:51.361,2026-06-23 01:55:51.361,,,,
851ECED6-44D9-456C-87BA-CC76DBD81014,163,San Jerónimo 444,-32.3554010,-60.9408085,150,1,2026-06-23 01:55:51.361,2026-06-23 01:55:51.361,,,,
C59AE0F6-BD7C-4650-982F-CC9213C12CC8,833,"Av. José Vicente Zapata 42, M5500 Mendoza, Argentina",-32.8949490,-68.8398779,150,1,2026-06-18 12:01:48.567,2026-06-18 12:02:02.267,ChIJZyfE2RYJfpYRM5K-UiEaj1U,,,
FFF828A8-B9AF-4C48-8BCA-CCF01DDDCA28,394,Av. Santa Fe 4489,-34.5793446,-58.4242825,150,1,2026-06-23 01:55:51.361,2026-06-23 01:55:51.361,,,,
13D7BA69-62AB-4A61-A73A-CD2FD8E52DC6,744,Independencia 907,-34.6175539,-58.3788571,150,1,2026-06-23 01:55:51.361,2026-06-23 01:55:51.361,,,,
63730EE3-926B-4471-9891-CD5088684995,850,Deheza 2845,-34.5428758,-58.4779541,150,1,2026-06-23 01:55:51.361,2026-06-23 01:55:51.361,,,,
A1850F66-A790-4FD5-AC37-CD67CC401853,404,Av. Medrano 686,-34.6020763,-58.4208053,150,1,2026-06-23 01:55:51.361,2026-06-23 01:55:51.361,,,,
029973FD-A518-4BAA-B508-CEBE2D1A1D04,435,Ruta 26 162,-34.4087469,-58.7715933,150,1,2026-06-23 01:55:51.361,2026-06-23 01:55:51.361,,,,
60F8258F-85E1-4823-B853-CEC2C9C32404,719,Yerbal 2701,-34.6287380,-58.4674570,150,1,2026-06-23 01:55:51.361,2026-06-23 01:55:51.361,,,,
0D339B35-C7E0-45E0-ABEE-CEEFC5FD217D,662,Av. Belgrano 3043,-34.6151567,-58.4089494,150,1,2026-06-23 01:55:51.361,2026-06-23 01:55:51.361,,,,
1E074EB2-8492-46F7-B389-CF309D876960,6029,Av. San Martin Sur 1867,-32.9487183,-68.8537253,150,1,2026-06-23 01:55:51.361,2026-06-23 01:55:51.361,,,,
D9634133-EE06-4930-92F7-CF86A920B13D,672,Coronel Martiniano Chilavert 6901,-34.6891721,-58.4798228,150,1,2026-06-23 01:55:51.361,2026-06-23 01:55:51.361,,,,
1E09A0A7-3B27-4228-B496-D00436A17C68,499,Cristianía 1832,-34.6975815,-58.6013444,150,1,2026-06-23 01:55:51.361,2026-06-23 01:55:51.361,,,,
4DBAA791-383D-4A6A-ADE2-D00D1FA06158,6001,Maestro Vidal 304,-31.4071207,-64.2240319,150,1,2026-06-23 01:55:51.361,2026-06-23 01:55:51.361,,,,
3E032F3C-8DBA-44F1-931C-D01761673365,545,Libertad 1039,-35.0521388,-58.7632869,150,1,2026-06-23 01:55:51.361,2026-06-23 01:55:51.361,,,,
B8E1DCE8-B5AE-4240-ACFC-D188F55530B0,798,Franklin D Roosevelt 2268,-34.5565924,-58.4594332,150,1,2026-06-23 01:55:51.361,2026-06-23 01:55:51.361,,,,
31761F3D-61C1-4267-B1B7-D193C024298A,412,Av. Caseros 3535,-34.6387484,-58.4150011,150,1,2026-06-23 01:55:51.361,2026-06-23 01:55:51.361,,,,
1F70FFD5-85F9-4C9F-9590-D194F1060314,461,Salta 160,-33.8856988,-60.5632041,150,1,2026-06-23 01:55:51.361,2026-06-23 01:55:51.361,,,,
50B63672-2848-40D1-B0C2-D1D616A13F68,716,Castañeda 1836,-34.5538985,-58.4366384,150,1,2026-06-23 01:55:51.361,2026-06-23 01:55:51.361,,,,
D18CC726-71B8-4EF0-B00F-D20AB6108BB3,855,Bartolome Mitre 4202,-34.6103151,-58.4260390,150,1,2026-06-23 01:55:51.361,2026-06-23 01:55:51.361,,,,
ED99D766-7D1B-4ECE-BEF0-D26056DEE73E,820,"Av. Castro Barros 359, X5000 Córdoba",-31.4017281,-64.1963010,150,1,2026-06-23 01:55:51.361,2026-06-23 01:55:51.361,,,,
CEE6F7C4-22DE-47BC-AF70-D3D7C90F1313,838,Soler 4072,-34.5909960,-58.4187402,150,1,2026-06-23 01:55:51.361,2026-06-23 01:55:51.361,,,,
A719BAEF-D564-4E63-9DB4-D3E5D81AA4C0,590,Peña 2544,-31.3804486,-64.1458374,150,1,2026-06-23 01:55:51.361,2026-06-23 01:55:51.361,,,,
192A9D07-A455-478A-934E-D495D2FCF655,348,Av. Rivadavia 3421,-34.6107565,-58.4147439,150,1,2026-06-23 01:55:51.361,2026-06-23 01:55:51.361,,,,
DA7D134D-D549-45A8-8E07-D4E1ADB68DFC,418,Carlos Calvo 1826,-34.6202513,-58.3920411,150,1,2026-06-23 01:55:51.361,2026-06-23 01:55:51.361,,,,
886C398E-F0ED-4BB4-9413-D511A83F9144,565,Ecuador 932,-33.9016445,-60.5610810,150,1,2026-06-23 01:55:51.361,2026-06-23 01:55:51.361,,,,
5224BCB2-F227-420F-B2F9-D5195398CBFA,742,Av. Juan Bautista Alberdi 5494,-34.6490726,-58.4997570,150,1,2026-06-23 01:55:51.361,2026-06-23 01:55:51.361,,,,
3C129475-42E9-45B8-BD59-D60B3C8C0B2D,678,Arregui 6369,-34.6283608,-58.5237792,150,1,2026-06-23 01:55:51.361,2026-06-23 01:55:51.361,,,,
C28F6A89-6BC2-45C6-981D-D62644604566,6009,Balcarce 401,-32.9393308,-60.6507815,150,1,2026-06-23 01:55:51.361,2026-06-23 01:55:51.361,,,,
C3DAADF4-13EA-4DB5-8448-D6BB7D0A4F6C,676,Chile 701,-37.3361089,-59.1273669,150,1,2026-06-23 01:55:51.361,2026-06-23 01:55:51.361,,,,
114CFB9F-F315-4DA9-8A27-D70D81D64E22,695,Almirante Brown 261,-37.0302646,-64.2813928,150,1,2026-06-23 01:55:51.361,2026-06-23 01:55:51.361,,,,
808FF2BA-0BAC-466E-A485-D7482D5AEBDB,797,Nogoya 2744,-34.6005580,-58.4878078,150,1,2026-06-23 01:55:51.361,2026-06-23 01:55:51.361,,,,
302D31B4-8ED7-4CB1-9D5D-D8731519B5D9,423,Av. Castañares 4854,-34.6669580,-58.4728588,150,1,2026-06-23 01:55:51.361,2026-06-23 01:55:51.361,,,,
D657A45E-7CB9-409A-AAAA-D9470C2251D1,463,Av. Teniente Gral Juan Domingo Perón 2640,-34.6733697,-58.4062804,150,1,2026-06-23 01:55:51.361,2026-06-23 01:55:51.361,,,,
17F9FAB9-F780-43B5-A92E-D9DBFE10EA0B,840,Av. Tte. Gral. Donato Alvarez 194,-34.6235025,-58.4550259,150,1,2026-06-23 01:55:51.361,2026-06-23 01:55:51.361,,,,
57FE866C-2948-4C20-AD8F-DACB031834AA,267,Roque Saenz Peña 121,-30.0063049,-61.8362540,150,1,2026-06-23 01:55:51.361,2026-06-23 01:55:51.361,,,,
5D6D6FCF-90CA-4B1A-80B0-DAD4601EF3B2,687,Av. Alvarez Jonte 1987,-34.6037753,-58.4715487,150,1,2026-06-23 01:55:51.361,2026-06-23 01:55:51.361,,,,
54521610-A1CD-4871-A4FA-DBFF5C5ACF2E,324,Av. Directorio 1766,-34.6309712,-58.4526752,150,1,2026-06-23 01:55:51.361,2026-06-23 01:55:51.361,,,,
2E401FCA-E55A-411D-98FE-DC7046403A15,670,Hidalgo 92,-34.6715850,-58.6847895,150,1,2026-06-23 01:55:51.361,2026-06-23 01:55:51.361,,,,
5ADC74D0-DB04-4851-8D36-DC7CDA882CDE,625,Montiel 1061,-34.8176140,-58.3744931,150,1,2026-06-23 01:55:51.361,2026-06-23 01:55:51.361,,,,
2C221D0A-42A8-4097-B93F-DDA148E33C7B,6022,"Hipolito Yrigoyen 2695, Maipú, Mendoza (Complejo Comercial Estación Torreón)",-31.6723110,-60.7648227,150,1,2026-06-23 01:55:51.361,2026-06-23 01:55:51.361,,,,
8970A160-C0D8-40F7-8A52-DDA9817C0267,318,Arroyo 859,-34.5915804,-58.3793478,150,1,2026-06-23 01:55:51.361,2026-06-23 01:55:51.361,,,,
9A9E482F-03F0-4298-BE2B-DE7043DDF0AC,391,Av. Cabildo 2865,-34.5558317,-58.4622045,150,1,2026-06-23 01:55:51.361,2026-06-23 01:55:51.361,,,,
77828380-9064-4016-954C-DEDAADF70B23,548,Av. Congreso 5241,-34.5707225,-58.4919779,150,1,2026-06-23 01:55:51.361,2026-06-23 01:55:51.361,,,,
FC918A6C-8648-4D27-80A8-E01780911C4D,373,11 de Septiembre 3910,-34.5432062,-58.4631614,150,1,2026-06-23 01:55:51.361,2026-06-23 01:55:51.361,,,,
0208C275-6D42-4C2B-AE3D-E189E18AC278,823,San Martin 1153,-34.5942669,-58.3743069,150,1,2026-06-23 01:55:51.361,2026-06-23 01:55:51.361,,,,
E237FD82-57DD-4B1B-99B6-E1A421B11B6A,351,Echeverria 2067,-33.8856554,-60.5883698,150,1,2026-06-23 01:55:51.361,2026-06-23 01:55:51.361,,,,
C63D8CA4-414F-4B12-8ABB-E34B2B7BF3FA,291,Piedras 383,-34.2951621,-60.2553622,150,1,2026-06-23 01:55:51.361,2026-06-23 01:55:51.361,,,,
F7381441-424A-49E7-B2A4-E410E3FD6D65,725,Directorio 2320,-34.6330751,-58.4593624,150,1,2026-06-23 01:55:51.361,2026-06-23 01:55:51.361,,,,
F0574610-B920-4ED1-BBE6-E41EC73EE104,491,Av. Montes de Oca 970,-34.6393753,-58.3744587,150,1,2026-06-23 01:55:51.361,2026-06-23 01:55:51.361,,,,
A11C8978-0CA1-4589-AECA-E4875BE2868F,660,Juan Segui 4524,-31.4531522,-64.1110294,150,1,2026-06-23 01:55:51.361,2026-06-23 01:55:51.361,,,,
242B452F-7DE7-40B8-908D-E5B1B9FC52AF,795,Guatemala 4540,-34.5874964,-58.4229805,150,1,2026-06-23 01:55:51.361,2026-06-23 01:55:51.361,,,,
7CE47180-265B-495C-8F18-E688519E659C,657,Montiel 1718,-34.7258867,-58.7055981,150,1,2026-06-23 01:55:51.361,2026-06-23 01:55:51.361,,,,
5995EDBB-1991-4A2A-967C-E70467581CB0,425,"Av. Brig. Gral. Juan Manuel de Rosas 2553, B1650 Villa José León Suárez, Provincia de Buenos Aires, Argentina",-34.5309830,-58.5753770,150,1,2026-06-18 11:53:15.696,2026-06-18 11:59:05.754,ChIJfYeN9mq6vJURAYqmktIO1hw,,,
1F3FFF9C-808A-4B7E-99FD-E76E12D111D8,478,Misiones 6572,-34.6052706,-58.5939715,150,1,2026-06-23 01:55:51.361,2026-06-23 01:55:51.361,,,,
CD8F81B1-16BA-47B1-85C4-E94FC93454FF,527,Fray Justo Santa Maria de Oro 2121,-34.5832275,-58.4279115,150,1,2026-06-23 01:55:51.361,2026-06-23 01:55:51.361,,,,
E71CEB63-DF8F-45D8-B501-E9D88819ED97,283,Av. Las Heras 316,-34.7108233,-58.2630082,150,1,2026-06-23 01:55:51.361,2026-06-23 01:55:51.361,,,,
4A39B811-50EA-4A0C-B274-E9DC2D01D773,303,Talcahuano 841,-34.6887029,-58.4998517,150,1,2026-06-23 01:55:51.361,2026-06-23 01:55:51.361,,,,
E55EF0CB-238A-410E-8E1E-EA5023ECE2F8,782,Zapiola 2215,-34.5648960,-58.4642975,150,1,2026-06-23 01:55:51.361,2026-06-23 01:55:51.361,,,,
7C8E6367-5353-42F0-9098-EA5A61E6E157,815,Av. Varela 1264,-34.6428008,-58.4543121,150,1,2026-06-23 01:55:51.361,2026-06-23 01:55:51.361,,,,
4CDA1650-C460-4126-A822-EA90DEEBDD85,710,Nahuel Huapi 5038,-34.5709784,-58.4883542,150,1,2026-06-23 01:55:51.361,2026-06-23 01:55:51.361,,,,
4639AE09-0EE6-4C0E-9921-EAE1A3834B9C,594,Inclán 2502,-34.6298859,-58.3997103,150,1,2026-06-23 01:55:51.361,2026-06-23 19:21:49.517,ChIJj2gPeRnLvJURDsztUr2ORWk,Parque Patricios,Buenos Aires,
90796C0A-63F6-4E25-B681-EBDE577A9042,223,Octavio Pinto 2665,-31.3890769,-64.2156453,150,1,2026-06-23 01:55:51.361,2026-06-23 01:55:51.361,,,,
9C18E3A7-0638-4DED-9CE6-EC55F1AC97F9,473,9 de Julio 46,-34.6396434,-58.5651535,150,1,2026-06-23 01:55:51.361,2026-06-23 01:55:51.361,,,,
5FA1D671-83C3-4765-B112-ECEFF29FAEAD,771,Santa Fe 723,-29.1822772,-58.0911771,150,1,2026-06-23 01:55:51.361,2026-06-23 01:55:51.361,,,,
C4A0820A-73E6-47D5-ACE7-ED2CBF96DE94,677,Alvarez Jonte 3079,-34.6364968,-58.6515157,150,1,2026-06-23 01:55:51.361,2026-06-23 01:55:51.361,,,,
65EFB87B-07CF-42AB-A88C-ED3D98101F89,316,Av. Cnel.Ramon L.Falcon 2402,-34.6300137,-58.4623325,150,1,2026-06-23 01:55:51.361,2026-06-23 01:55:51.361,,,,
6DAA31C4-E477-41D0-8774-ED50B0B01225,694,Tucuman 1541,-34.6017456,-58.3886432,150,1,2026-06-23 01:55:51.361,2026-06-23 01:55:51.361,,,,
C16E1C34-D936-401C-823C-EDAEF37E64F3,754,Av. Las Heras 3315,-34.5831148,-58.4073410,150,1,2026-06-23 01:55:51.361,2026-06-23 01:55:51.361,,,,
C42F1100-AAD3-4B4B-9AE2-EDD5E82F0E08,839,Montevideo 461,-33.3487436,-60.2049838,150,1,2026-06-23 01:55:51.361,2026-06-23 01:55:51.361,,,,
B6E537D9-E890-43CE-9B04-EF7B3C89FACD,779,Av. Carabobo 269,-34.6300743,-58.4550802,150,1,2026-06-23 01:55:51.361,2026-06-23 01:55:51.361,,,,
D543DBB5-4681-403D-B574-EF8D23E4CA58,851,Ozamis 31,-32.9863709,-68.7910605,150,1,2026-06-23 01:55:51.361,2026-06-23 01:55:51.361,,,,
F12DE853-1224-414A-8A04-EFD420F9C013,226,Av. Sta Fe 2349,-34.4924865,-58.4991283,150,1,2026-06-23 01:55:51.361,2026-06-23 01:55:51.361,,,,
EAAE020B-1FE0-44B5-AE47-EFEADD95BBF4,770,Ituzaingo 514,-30.3135781,-61.2317984,150,1,2026-06-23 01:55:51.361,2026-06-23 01:55:51.361,,,,
C710D1CB-C27E-4F4C-A357-EFF5C2E17014,593,Entre Rios 1192,-34.7854553,-58.3558435,150,1,2026-06-23 01:55:51.361,2026-06-23 01:55:51.361,,,,
88EB3462-E90E-4249-A6CB-F00ECCD51F9D,773,"Av. Pres. Manuel Quintana 570, C1129ABO Cdad. Autónoma de Buenos Aires",-34.5878132,-58.3905976,150,1,2026-06-23 01:55:51.361,2026-06-23 01:55:51.361,,,,
7971A7F0-08F1-495F-9252-F0E8D22DF9F4,686,Juan Agustin Garcia 3202,-34.6124191,-58.4860516,150,1,2026-06-23 01:55:51.361,2026-06-23 01:55:51.361,,,,
066A61EC-EB76-4BEB-AB98-F12BED41EC7F,222,Paraná 473,-31.4237320,-64.1797718,150,1,2026-06-23 01:55:51.361,2026-06-23 01:55:51.361,,,,
69F7641C-EBF4-44A9-BF03-F1D5B825A128,606,"Obispo Trejo 1166, X5000 Córdoba",-31.4288021,-64.1910715,150,1,2026-06-23 01:55:51.361,2026-06-23 01:55:51.361,,,,
8462C26C-4988-40AF-B80E-F1EE75530C2D,309,Campana 3050,-34.6026093,-58.4963167,150,1,2026-06-23 01:55:51.361,2026-06-23 01:55:51.361,,,,
B97A990E-BC82-4588-9A7B-F31B2A1730F7,192,Av. Callao 1450,-34.5922020,-58.3923631,150,1,2026-06-23 01:55:51.361,2026-06-23 01:55:51.361,,,,
3C716576-6375-448F-B4AE-F37B7640BE98,614,Murguiondo 4053,-34.6758852,-58.4770617,150,1,2026-06-23 01:55:51.361,2026-06-23 01:55:51.361,,,,
7E81C589-B2B9-4A03-911B-F3930009DB28,659,Conesa 999,-37.6133126,-62.3998676,150,1,2026-06-23 01:55:51.361,2026-06-23 01:55:51.361,,,,
E70BBC1C-A7F7-4317-8338-F3CF082C1AEF,661,Araoz 1140,-34.5945993,-58.4287772,150,1,2026-06-23 01:55:51.361,2026-06-23 01:55:51.361,,,,
29FA8506-2C17-448A-B570-F3F619CA2EFE,541,Maipu 918,-34.6504508,-58.5727389,150,1,2026-06-23 01:55:51.361,2026-06-23 01:55:51.361,,,,
26715A41-F2FC-4974-9339-F418F2034D24,599,Blanco Encalada 4470,-34.5717236,-58.4799660,150,1,2026-06-23 01:55:51.361,2026-06-23 01:55:51.361,,,,
257F1560-6CD7-47E2-B9A1-F4584EE1C879,415,Av. San Juan 4351,-34.6269138,-58.4261709,150,1,2026-06-23 01:55:51.361,2026-06-23 01:55:51.361,,,,
EB9BF23A-5673-42D2-A8F3-F4A4C2B28C81,780,Av. Corrientes 5573,-34.5965828,-58.4423415,150,1,2026-06-23 01:55:51.361,2026-06-23 01:55:51.361,,,,
9C68F5FD-3C9D-4FC6-AFC4-F4D4F91C3447,698,Belaustegui 2748,-34.6154196,-58.4754876,150,1,2026-06-23 01:55:51.361,2026-06-23 01:55:51.361,,,,
0A04579E-F90C-4CED-86CA-F4EC1C4C1323,642,Gral Paz 240,-34.8477462,-58.5295640,150,1,2026-06-23 01:55:51.361,2026-06-23 01:55:51.361,,,,
CBF34CC4-5348-4E12-B800-F703C9AEDAB0,570,Defensa 1400,-34.6459263,-58.7732610,150,1,2026-06-23 01:55:51.361,2026-06-23 01:55:51.361,,,,
EE6484CD-9595-43D8-AD93-F8048D721B2E,6018,Viamonte 5366,-34.5204036,-58.5343613,150,1,2026-06-23 01:55:51.361,2026-06-23 01:55:51.361,,,,
A9970EFD-18D6-4BA3-970D-F91BBBD630D5,600,Directorio 3960,-34.6124715,-58.5526345,150,1,2026-06-23 01:55:51.361,2026-06-23 01:55:51.361,,,,
DF724D2F-48EE-4FE7-8CC7-F92856B49EF1,374,Romulo Naon 2401,-34.5673533,-58.4727831,150,1,2026-06-23 01:55:51.361,2026-06-23 01:55:51.361,,,,
552F30F1-E013-4786-8305-FA092A8DD98C,360,Los Incas 5174,-34.5866489,-58.4814366,150,1,2026-06-23 01:55:51.361,2026-06-23 01:55:51.361,,,,
632948E2-AEA5-47F4-9473-FAB29BF290DF,313,Montañeses 2267,-34.7002108,-58.5685581,150,1,2026-06-23 01:55:51.361,2026-06-23 01:55:51.361,,,,
F300DDAA-D1BB-4D7B-9332-FB180D35E58E,586,San Martin 5934,-31.6133440,-60.6966974,150,1,2026-06-23 01:55:51.361,2026-06-23 01:55:51.361,,,,
D4779FD1-C20C-49B5-8F0E-FB80DC5DC825,563,Hidalgo 955,-34.7899821,-58.6313881,150,1,2026-06-23 01:55:51.361,2026-06-23 01:55:51.361,,,,
7BB73234-A270-401D-9C13-FBA160D9C67C,877,Av. Cabildo 4300,-34.5445695,-58.4715370,150,1,2026-06-23 01:55:51.361,2026-06-23 01:55:51.361,,,,
D2B02C1A-485C-417B-A5E6-FBF5DF443117,596,Av. Federico Lacroze 3660,-34.5821658,-58.4520116,150,1,2026-06-23 01:55:51.361,2026-06-23 01:55:51.361,,,,
6FE84169-8BE3-4B1D-851F-FD35CBA7AAA0,438,25 de Mayo 2650,-34.6912158,-58.4260618,150,1,2026-06-23 01:55:51.361,2026-06-23 01:55:51.361,,,,
920C96D8-09E0-4B6F-A84B-FE6DB9A4FFE5,6015,San Martin 8110,-31.5934978,-60.6912570,150,1,2026-06-23 01:55:51.361,2026-06-23 01:55:51.361,,,,
474E015D-19C8-4A6E-A11E-FF04EF721408,488,Av. Belgrano 1562,-34.6136008,-58.3884085,150,1,2026-06-23 01:55:51.361,2026-06-23 01:55:51.361,,,,
2D85B39A-56DB-48D8-BAF3-FF3E03692737,805,Av. Medrano 414,-34.6058622,-58.4212822,150,1,2026-06-23 01:55:51.361,2026-06-23 01:55:51.361,,,,
44590700-5C02-428D-BE19-FF662ECF1D68,6025,Aristides Villanueva 287,-32.8922971,-68.8544988,150,1,2026-06-23 01:55:51.361,2026-06-23 01:55:51.361,,,,
867FE792-9486-4836-856B-FF79DFD0F8EF,302,Esmeralda 823,-36.5939224,-64.2922039,150,1,2026-06-23 01:55:51.361,2026-06-23 01:55:51.361,,,,
